[
  {
    "airport":"Abu Dhabi Int.",
    "airport_code":"AUH",
    "latitude":24.43300056,
    "longitude":54.65110016,
    "continent":"Asia",
    "country":"United Arab Emirates",
    "country_code":"AE",
    "city":"Abu Dhabi",
    "city_code":"AUH",
    "group":null,
    "market":"INT",
    "nearby":[

    ]
  },
  {
    "airport":"Dubai Int.",
    "airport_code":"DXB",
    "latitude":25.25279999,
    "longitude":55.36439896,
    "continent":"Asia",
    "country":"United Arab Emirates",
    "country_code":"AE",
    "city":"Dubai",
    "city_code":"DXB",
    "group":null,
    "market":"INT",
    "nearby":[

    ]
  },
  {
    "airport":"Sharjah Int.",
    "airport_code":"SHJ",
    "latitude":25.32859993,
    "longitude":55.51720047,
    "continent":"Asia",
    "country":"United Arab Emirates",
    "country_code":"AE",
    "city":"Sharjah",
    "city_code":"SHJ",
    "group":null,
    "market":"INT",
    "nearby":[

    ]
  },
  {
    "airport":"V.C. Bird Int.",
    "airport_code":"ANU",
    "latitude":17.1367,
    "longitude":-61.792702,
    "continent":"North America",
    "country":"Antigua and Barbuda",
    "country_code":"AG",
    "city":"Antigua",
    "city_code":"ANU",
    "group":"MEXSA",
    "market":"SUN",
    "nearby":[

    ]
  },
  {
    "airport":"Tirana Int.",
    "airport_code":"TIA",
    "latitude":41.41469955,
    "longitude":19.72060013,
    "continent":"Europe",
    "country":"Albania",
    "country_code":"AL",
    "city":"Tirana",
    "city_code":"TIA",
    "group":null,
    "market":"INT",
    "nearby":[

    ]
  },
  {
    "airport":"Philip S. W. Goldson Int. Airport",
    "airport_code":"BZE",
    "latitude":17.53910065,
    "longitude":-88.30819702,
    "continent":"North America",
    "country":"Belize",
    "country_code":"BZ",
    "city":"Belize City",
    "city_code":"BZE",
    "group":"MEXSA",
    "market":"SUN",
    "nearby":[

    ]
  },
  {
    "airport":"Zvartnots Int. Airport",
    "airport_code":"EVN",
    "latitude":40.14730072,
    "longitude":44.39590073,
    "continent":"Asia",
    "country":"Armenia",
    "country_code":"AM",
    "city":"Yerevan",
    "city_code":"EVN",
    "group":null,
    "market":"INT",
    "nearby":[

    ]
  },
  {
    "airport":"Quatro De Fevereiro",
    "airport_code":"LAD",
    "latitude":-8.85837,
    "longitude":13.2312,
    "continent":"Africa",
    "country":"Angola",
    "country_code":"AO",
    "city":"Luanda",
    "city_code":"LAD",
    "group":null,
    "market":"INT",
    "nearby":[

    ]
  },
  {
    "airport":"Heydar Aliyev Int. Airport",
    "airport_code":"GYD",
    "latitude":40.46749878,
    "longitude":50.04669952,
    "continent":"Asia",
    "country":"Azerbaijan",
    "country_code":"AZ",
    "city":"Baku",
    "city_code":"BAK",
    "group":null,
    "market":"INT",
    "nearby":[

    ]
  },
  {
    "airport":"Ganja",
    "airport_code":"KVD",
    "latitude":40.73770142,
    "longitude":46.31760025,
    "continent":"Asia",
    "country":"Azerbaijan",
    "country_code":"AZ",
    "city":"Ganja",
    "city_code":"KVD",
    "group":null,
    "market":"INT",
    "nearby":[

    ]
  },
  {
    "airport":"Ministro Pistarini Int.",
    "airport_code":"EZE",
    "latitude":-34.8222,
    "longitude":-58.5358,
    "continent":"South America",
    "country":"Argentina",
    "country_code":"AR",
    "city":"Buenos Aires",
    "city_code":"BUE",
    "group":"MEXSA",
    "market":"INT",
    "nearby":[

    ]
  },
  {
    "airport":"Pajas Blancas",
    "airport_code":"COR",
    "latitude":-31.323601,
    "longitude":-64.208,
    "continent":"South America",
    "country":"Argentina",
    "country_code":"AR",
    "city":"C\u00f3rdoba",
    "city_code":"COR",
    "group":"MEXSA",
    "market":"INT",
    "nearby":[

    ]
  },
  {
    "airport":"El Plumerillo",
    "airport_code":"MDZ",
    "latitude":-32.83169937,
    "longitude":-68.79290009,
    "continent":"South America",
    "country":"Argentina",
    "country_code":"AR",
    "city":"Mendoza",
    "city_code":"MDZ",
    "group":"MEXSA",
    "market":"INT",
    "nearby":[

    ]
  },
  {
    "airport":"Rosario \u2013 Islas Malvinas Int. Airport",
    "airport_code":"ROS",
    "latitude":-32.9036,
    "longitude":-60.785,
    "continent":"South America",
    "country":"Argentina",
    "country_code":"AR",
    "city":"Rosario",
    "city_code":"ROS",
    "group":"MEXSA",
    "market":"INT",
    "nearby":[

    ]
  },
  {
    "airport":"Graz",
    "airport_code":"GRZ",
    "latitude":46.99110031,
    "longitude":15.43959999,
    "continent":"Europe",
    "country":"Austria",
    "country_code":"AT",
    "city":"Graz",
    "city_code":"GRZ",
    "group":"EUROPE",
    "market":"INT",
    "nearby":[

    ]
  },
  {
    "airport":"Innsbruck-Kranebitten",
    "airport_code":"INN",
    "latitude":47.260201,
    "longitude":11.344,
    "continent":"Europe",
    "country":"Austria",
    "country_code":"AT",
    "city":"Innsbruck",
    "city_code":"INN",
    "group":"EUROPE",
    "market":"INT",
    "nearby":[

    ]
  },
  {
    "airport":"Klagenfurt",
    "airport_code":"KLU",
    "latitude":46.642502,
    "longitude":14.3377,
    "continent":"Europe",
    "country":"Austria",
    "country_code":"AT",
    "city":"Klagenfurt",
    "city_code":"KLU",
    "group":"EUROPE",
    "market":"INT",
    "nearby":[

    ]
  },
  {
    "airport":"Linz",
    "airport_code":"LNZ",
    "latitude":48.2332,
    "longitude":14.1875,
    "continent":"Europe",
    "country":"Austria",
    "country_code":"AT",
    "city":"Linz",
    "city_code":"LNZ",
    "group":"EUROPE",
    "market":"INT",
    "nearby":[

    ]
  },
  {
    "airport":"Wolfgang A. Mozart",
    "airport_code":"SZG",
    "latitude":47.79330063,
    "longitude":13.00430012,
    "continent":"Europe",
    "country":"Austria",
    "country_code":"AT",
    "city":"Salzburg",
    "city_code":"SZG",
    "group":"EUROPE",
    "market":"INT",
    "nearby":[

    ]
  },
  {
    "airport":"Vienna Int.",
    "airport_code":"VIE",
    "latitude":48.11029816,
    "longitude":16.56970024,
    "continent":"Europe",
    "country":"Austria",
    "country_code":"AT",
    "city":"Vienna",
    "city_code":"VIE",
    "group":"EUROPE",
    "market":"INT",
    "nearby":[

    ]
  },
  {
    "airport":"Reina Beatrix",
    "airport_code":"AUA",
    "latitude":12.5014,
    "longitude":-70.015198,
    "continent":"North America",
    "country":"Aruba",
    "country_code":"AW",
    "city":"Aruba",
    "city_code":"AUA",
    "group":"MEXSA",
    "market":"SUN",
    "nearby":[

    ]
  },
  {
    "airport":"Banja Luka Int. Airport",
    "airport_code":"BNX",
    "latitude":44.94139862,
    "longitude":17.29750061,
    "continent":"Europe",
    "country":"Bosnia and Herzegovina",
    "country_code":"BA",
    "city":"Banja Luka",
    "city_code":"BNX",
    "group":null,
    "market":"INT",
    "nearby":[

    ]
  },
  {
    "airport":"Sarajevo Int. Airport",
    "airport_code":"SJJ",
    "latitude":43.82460022,
    "longitude":18.3314991,
    "continent":"Europe",
    "country":"Bosnia and Herzegovina",
    "country_code":"BA",
    "city":"Sarajevo",
    "city_code":"SJJ",
    "group":null,
    "market":"INT",
    "nearby":[

    ]
  },
  {
    "airport":"Grantley Adams Int.",
    "airport_code":"BGI",
    "latitude":13.07460022,
    "longitude":-59.49250031,
    "continent":"North America",
    "country":"Barbados",
    "country_code":"BB",
    "city":"Bridgetown",
    "city_code":"BGI",
    "group":"MEXSA",
    "market":"SUN",
    "nearby":[

    ]
  },
  {
    "airport":"Dhaka\\/Hazrat Shahjalal Int.",
    "airport_code":"DAC",
    "latitude":23.843347,
    "longitude":90.397783,
    "continent":"Asia",
    "country":"Bangladesh",
    "country_code":"BD",
    "city":"Dhaka",
    "city_code":"DAC",
    "group":null,
    "market":"INT",
    "nearby":[

    ]
  },
  {
    "airport":"Brussels National",
    "airport_code":"BRU",
    "latitude":50.90140152,
    "longitude":4.48443985,
    "continent":"Europe",
    "country":"Belgium",
    "country_code":"BE",
    "city":"Brussels",
    "city_code":"BRU",
    "group":"EUROPE",
    "market":"INT",
    "nearby":[

    ]
  },
  {
    "airport":"Ouagadougou",
    "airport_code":"OUA",
    "latitude":12.3532,
    "longitude":-1.51242,
    "continent":"Europe",
    "country":"Burkina Faso",
    "country_code":"BF",
    "city":"Ouagadougou",
    "city_code":"OUA",
    "group":null,
    "market":"INT",
    "nearby":[

    ]
  },
  {
    "airport":"Sofia",
    "airport_code":"SOF",
    "latitude":42.69669342,
    "longitude":23.41143608,
    "continent":"Europe",
    "country":"Bulgaria",
    "country_code":"BG",
    "city":"Sofia",
    "city_code":"SOF",
    "group":null,
    "market":"INT",
    "nearby":[

    ]
  },
  {
    "airport":"Varna Airport",
    "airport_code":"VAR",
    "latitude":43.232101,
    "longitude":27.8251,
    "continent":"Europe",
    "country":"Bulgaria",
    "country_code":"BG",
    "city":"Varna",
    "city_code":"VAR",
    "group":null,
    "market":"INT",
    "nearby":[

    ]
  },
  {
    "airport":"Bahrain Int.",
    "airport_code":"BAH",
    "latitude":26.27079964,
    "longitude":50.63359833,
    "continent":"Asia",
    "country":"Bahrain",
    "country_code":"BH",
    "city":"Bahrain",
    "city_code":"BAH",
    "group":null,
    "market":"INT",
    "nearby":[

    ]
  },
  {
    "airport":"Bujumbura Int.",
    "airport_code":"BJM",
    "latitude":-3.324019909,
    "longitude":29.31850052,
    "continent":"Africa",
    "country":"Burundi",
    "country_code":"BI",
    "city":"Bujumbura",
    "city_code":"BJM",
    "group":null,
    "market":"INT",
    "nearby":[

    ]
  },
  {
    "airport":"Cotonou",
    "airport_code":"COO",
    "latitude":6.357230186,
    "longitude":2.384350061,
    "continent":"Africa",
    "country":"Benin",
    "country_code":"BJ",
    "city":"Cotonou",
    "city_code":"COO",
    "group":null,
    "market":"INT",
    "nearby":[

    ]
  },
  {
    "airport":"L.F. Wade Int.",
    "airport_code":"BDA",
    "latitude":32.36399841,
    "longitude":-64.67870331,
    "continent":"North America",
    "country":"Bermuda",
    "country_code":"BM",
    "city":"Bermuda",
    "city_code":"BDA",
    "group":null,
    "market":"SUN",
    "nearby":[

    ]
  },
  {
    "airport":"El Alto Int. Airport",
    "airport_code":"LPB",
    "latitude":-16.51329994,
    "longitude":-68.19229889,
    "continent":"South America",
    "country":"Bolivia",
    "country_code":"BO",
    "city":"La Paz",
    "city_code":"LPB",
    "group":null,
    "market":"INT",
    "nearby":[

    ]
  },
  {
    "airport":"Viru Viru Int.",
    "airport_code":"VVI",
    "latitude":-17.6448,
    "longitude":-63.135399,
    "continent":"South America",
    "country":"Bolivia",
    "country_code":"BO",
    "city":"Santa Cruz",
    "city_code":"SRZ",
    "group":null,
    "market":"INT",
    "nearby":[

    ]
  },
  {
    "airport":"El Trompillo Airport",
    "airport_code":"SRZ",
    "latitude":-17.81159973,
    "longitude":-63.17150116,
    "continent":"South America",
    "country":"Bolivia",
    "country_code":"BO",
    "city":"Santa Cruz",
    "city_code":"SRZ",
    "group":null,
    "market":"INT",
    "nearby":[

    ]
  },
  {
    "airport":"Brasilia Int.",
    "airport_code":"BSB",
    "latitude":-15.86916733,
    "longitude":-47.92083359,
    "continent":"South America",
    "country":"Brazil",
    "country_code":"BR",
    "city":"Brasilia",
    "city_code":"BSB",
    "group":"MEXSA",
    "market":"INT",
    "nearby":[

    ]
  },
  {
    "airport":"Marechal Rondon Int. Airport",
    "airport_code":"CGB",
    "latitude":-15.65289974,
    "longitude":-56.11669922,
    "continent":"South America",
    "country":"Brazil",
    "country_code":"BR",
    "city":"Cuiab\u00e1",
    "city_code":"CGB",
    "group":"MEXSA",
    "market":"INT",
    "nearby":[

    ]
  },
  {
    "airport":"Afonso Pena",
    "airport_code":"CWB",
    "latitude":-25.5284996,
    "longitude":-49.17580032,
    "continent":"South America",
    "country":"Brazil",
    "country_code":"BR",
    "city":"Curitiba",
    "city_code":"CWB",
    "group":"MEXSA",
    "market":"INT",
    "nearby":[

    ]
  },
  {
    "airport":"Florian\u00f3polis Int.",
    "airport_code":"FLN",
    "latitude":-27.67027855,
    "longitude":-48.55250168,
    "continent":"South America",
    "country":"Brazil",
    "country_code":"BR",
    "city":"Florian\u00f3polis",
    "city_code":"FLN",
    "group":"MEXSA",
    "market":"INT",
    "nearby":[

    ]
  },
  {
    "airport":"Pinto Martins Int.",
    "airport_code":"FOR",
    "latitude":-3.776279926,
    "longitude":-38.5326004,
    "continent":"South America",
    "country":"Brazil",
    "country_code":"BR",
    "city":"Fortaleza",
    "city_code":"FOR",
    "group":"MEXSA",
    "market":"INT",
    "nearby":[

    ]
  },
  {
    "airport":"Cataratas Int. Airport",
    "airport_code":"IGU",
    "latitude":-25.60027885,
    "longitude":-54.48500061,
    "continent":"South America",
    "country":"Brazil",
    "country_code":"BR",
    "city":"Foz do Igua\u00e7u",
    "city_code":"IGU",
    "group":"MEXSA",
    "market":"INT",
    "nearby":[

    ]
  },
  {
    "airport":"Santa Genoveva Airport",
    "airport_code":"GYN",
    "latitude":-16.63199997,
    "longitude":-49.22069931,
    "continent":"South America",
    "country":"Brazil",
    "country_code":"BR",
    "city":"Goi\u00e2nia",
    "city_code":"GYN",
    "group":"MEXSA",
    "market":"INT",
    "nearby":[

    ]
  },
  {
    "airport":"Presidente Castro Pinto Int. Airport",
    "airport_code":"JPA",
    "latitude":-7.145833015,
    "longitude":-34.94861221,
    "continent":"South America",
    "country":"Brazil",
    "country_code":"BR",
    "city":"Jo\u00e3o Pessoa",
    "city_code":"JPA",
    "group":"MEXSA",
    "market":"INT",
    "nearby":[

    ]
  },
  {
    "airport":"Juazeiro do Norte Airport",
    "airport_code":"JDO",
    "latitude":-7.218959808,
    "longitude":-39.27009964,
    "continent":"South America",
    "country":"Brazil",
    "country_code":"BR",
    "city":"Juazeiro do Norte",
    "city_code":"JDO",
    "group":"MEXSA",
    "market":"INT",
    "nearby":[

    ]
  },
  {
    "airport":"Lauro Carneiro de Loyola",
    "airport_code":"JOI",
    "latitude":-26.22450066,
    "longitude":-48.79740143,
    "continent":"South America",
    "country":"Brazil",
    "country_code":"BR",
    "city":"Joinville",
    "city_code":"JOI",
    "group":"MEXSA",
    "market":"INT",
    "nearby":[

    ]
  },
  {
    "airport":"Londrina",
    "airport_code":"LDB",
    "latitude":-23.33359909,
    "longitude":-51.13010025,
    "continent":"South America",
    "country":"Brazil",
    "country_code":"BR",
    "city":"Londrina",
    "city_code":"LDB",
    "group":"MEXSA",
    "market":"INT",
    "nearby":[

    ]
  },
  {
    "airport":"Zumbi dos Palmares Int. Airport",
    "airport_code":"MCZ",
    "latitude":-9.510809898,
    "longitude":-35.79169846,
    "continent":"South America",
    "country":"Brazil",
    "country_code":"BR",
    "city":"Macei\u00f3",
    "city_code":"MCZ",
    "group":"MEXSA",
    "market":"INT",
    "nearby":[

    ]
  },
  {
    "airport":"Eduardo Gomes Int.",
    "airport_code":"MAO",
    "latitude":-3.038609982,
    "longitude":-60.04970169,
    "continent":"South America",
    "country":"Brazil",
    "country_code":"BR",
    "city":"Manaus",
    "city_code":"MAO",
    "group":"MEXSA",
    "market":"INT",
    "nearby":[

    ]
  },
  {
    "airport":"Augusto Severo Int.",
    "airport_code":"NAT",
    "latitude":-5.768056,
    "longitude":-35.376111,
    "continent":"South America",
    "country":"Brazil",
    "country_code":"BR",
    "city":"Natal",
    "city_code":"NAT",
    "group":"MEXSA",
    "market":"INT",
    "nearby":[

    ]
  },
  {
    "airport":"Ministro Victor Konder Int. Airport",
    "airport_code":"NVT",
    "latitude":-26.879999,
    "longitude":-48.651402,
    "continent":"South America",
    "country":"Brazil",
    "country_code":"BR",
    "city":"Navegantes",
    "city_code":"NVT",
    "group":"MEXSA",
    "market":"INT",
    "nearby":[

    ]
  },
  {
    "airport":"Lauro Kurtz Airport",
    "airport_code":"PFB",
    "latitude":-28.243999,
    "longitude":-52.326599,
    "continent":"South America",
    "country":"Brazil",
    "country_code":"BR",
    "city":"Passo Fundo",
    "city_code":"PFB",
    "group":"MEXSA",
    "market":"INT",
    "nearby":[

    ]
  },
  {
    "airport":"Salgado Filho",
    "airport_code":"POA",
    "latitude":-29.99440002,
    "longitude":-51.17139816,
    "continent":"South America",
    "country":"Brazil",
    "country_code":"BR",
    "city":"Porto Alegre",
    "city_code":"POA",
    "group":"MEXSA",
    "market":"INT",
    "nearby":[

    ]
  },
  {
    "airport":"Guararapes Int.",
    "airport_code":"REC",
    "latitude":-8.126489639,
    "longitude":-34.92359924,
    "continent":"South America",
    "country":"Brazil",
    "country_code":"BR",
    "city":"Recife",
    "city_code":"REC",
    "group":"MEXSA",
    "market":"INT",
    "nearby":[

    ]
  },
  {
    "airport":"Gale\u00e3o - Ant\u00f4nio Carlos Jobim Int.",
    "airport_code":"GIG",
    "latitude":-22.80999947,
    "longitude":-43.25055695,
    "continent":"South America",
    "country":"Brazil",
    "country_code":"BR",
    "city":"Rio de Janeiro",
    "city_code":"RIO",
    "group":"MEXSA",
    "market":"INT",
    "nearby":[

    ]
  },
  {
    "airport":"Santos Dumont",
    "airport_code":"SDU",
    "latitude":-22.91049957,
    "longitude":-43.1631012,
    "continent":"South America",
    "country":"Brazil",
    "country_code":"BR",
    "city":"Rio de Janeiro",
    "city_code":"RIO",
    "group":"MEXSA",
    "market":"INT",
    "nearby":[

    ]
  },
  {
    "airport":"Congonhas - S\u00e3o Paulo",
    "airport_code":"CGH",
    "latitude":-23.62611008,
    "longitude":-46.65638733,
    "continent":"South America",
    "country":"Brazil",
    "country_code":"BR",
    "city":"S\u00e3o Paulo",
    "city_code":"SAO",
    "group":"MEXSA",
    "market":"INT",
    "nearby":[

    ]
  },
  {
    "airport":"Guarulhos Int.",
    "airport_code":"GRU",
    "latitude":-23.43555641,
    "longitude":-46.47305679,
    "continent":"South America",
    "country":"Brazil",
    "country_code":"BR",
    "city":"S\u00e3o Paulo",
    "city_code":"SAO",
    "group":"MEXSA",
    "market":"INT",
    "nearby":[

    ]
  },
  {
    "airport":"Deputado Lu\u00eds Eduardo Magalh\u00e3es",
    "airport_code":"SSA",
    "latitude":-12.9086113,
    "longitude":-38.32249832,
    "continent":"South America",
    "country":"Brazil",
    "country_code":"BR",
    "city":"Salvador",
    "city_code":"SSA",
    "group":"MEXSA",
    "market":"INT",
    "nearby":[

    ]
  },
  {
    "airport":"Viracopos Int.",
    "airport_code":"VCP",
    "latitude":-23.00740051,
    "longitude":-47.1344986,
    "continent":"South America",
    "country":"Brazil",
    "country_code":"BR",
    "city":"S\u00e3o Paulo - Campina",
    "city_code":"VCP",
    "group":"MEXSA",
    "market":"INT",
    "nearby":[

    ]
  },
  {
    "airport":"Vit\u00f3ria - Eurico de Aguiar Salles",
    "airport_code":"VIX",
    "latitude":-20.258057,
    "longitude":-40.286388,
    "continent":"South America",
    "country":"Brazil",
    "country_code":"BR",
    "city":"Vit\u00f3ria",
    "city_code":"VIX",
    "group":"MEXSA",
    "market":"INT",
    "nearby":[

    ]
  },
  {
    "airport":"Tancredo Neves Int. Airport",
    "airport_code":"CNF",
    "latitude":-19.62444305,
    "longitude":-43.9719429,
    "continent":"South America",
    "country":"Brazil",
    "country_code":"BR",
    "city":"Belo Horizonte",
    "city_code":"BHZ",
    "group":"MEXSA",
    "market":"INT",
    "nearby":[

    ]
  },
  {
    "airport":"Santa Maria Airport",
    "airport_code":"AJU",
    "latitude":-10.98400021,
    "longitude":-37.07030106,
    "continent":"South America",
    "country":"Brazil",
    "country_code":"BR",
    "city":"Aracaju",
    "city_code":"AJU",
    "group":"MEXSA",
    "market":"INT",
    "nearby":[

    ]
  },
  {
    "airport":"Belem",
    "airport_code":"BEL",
    "latitude":-1.37925005,
    "longitude":-48.47629929,
    "continent":"South America",
    "country":"Brazil",
    "country_code":"BR",
    "city":"Belem",
    "city_code":"BEL",
    "group":"MEXSA",
    "market":"INT",
    "nearby":[

    ]
  },
  {
    "airport":"Campo Grande Int.",
    "airport_code":"CGR",
    "latitude":-20.46870041,
    "longitude":-54.67250061,
    "continent":"South America",
    "country":"Brazil",
    "country_code":"BR",
    "city":"Campo Grande",
    "city_code":"CGR",
    "group":"MEXSA",
    "market":"INT",
    "nearby":[

    ]
  },
  {
    "airport":"Jorge Amado Airport",
    "airport_code":"IOS",
    "latitude":-14.81599998,
    "longitude":-39.03319931,
    "continent":"South America",
    "country":"Brazil",
    "country_code":"BR",
    "city":"Ilheus",
    "city_code":"IOS",
    "group":"MEXSA",
    "market":"INT",
    "nearby":[

    ]
  },
  {
    "airport":"Petrolina",
    "airport_code":"PNZ",
    "latitude":-9.362409592,
    "longitude":-40.56909943,
    "continent":"South America",
    "country":"Brazil",
    "country_code":"BR",
    "city":"Petrolina",
    "city_code":"PNZ",
    "group":"MEXSA",
    "market":"INT",
    "nearby":[

    ]
  },
  {
    "airport":"Chapeco",
    "airport_code":"XAP",
    "latitude":-27.13419914,
    "longitude":-52.65660095,
    "continent":"South America",
    "country":"Brazil",
    "country_code":"BR",
    "city":"Chapeco",
    "city_code":"XAP",
    "group":"MEXSA",
    "market":"INT",
    "nearby":[

    ]
  },
  {
    "airport":"Exuma Int.",
    "airport_code":"GGT",
    "latitude":23.56259918,
    "longitude":-75.87799835,
    "continent":"North America",
    "country":"Bahamas",
    "country_code":"BS",
    "city":"George Town",
    "city_code":"GGT",
    "group":"MEXSA",
    "market":"SUN",
    "nearby":[
      "NAS",
      "ZSA"
    ]
  },
  {
    "airport":"Lynden Pindling Int.",
    "airport_code":"NAS",
    "latitude":25.03899956,
    "longitude":-77.46620178,
    "continent":"North America",
    "country":"Bahamas",
    "country_code":"BS",
    "city":"Nassau",
    "city_code":"NAS",
    "group":"MEXSA",
    "market":"SUN",
    "nearby":[
      "GGT",
      "ZSA"
    ]
  },
  {
    "airport":"Marsh Harbour Int. Airport",
    "airport_code":"MHH",
    "latitude":26.5114,
    "longitude":-77.083503,
    "continent":"North America",
    "country":"Bahamas",
    "country_code":"BS",
    "city":"Marsh Harbour",
    "city_code":"MHH",
    "group":"MEXSA",
    "market":"SUN",
    "nearby":[

    ]
  },
  {
    "airport":"Treasure Cay Airport",
    "airport_code":"TCB",
    "latitude":26.74530029,
    "longitude":-77.39129639,
    "continent":"North America",
    "country":"Bahamas",
    "country_code":"BS",
    "city":"Treasure Cay",
    "city_code":"TCB",
    "group":"MEXSA",
    "market":"SUN",
    "nearby":[

    ]
  },
  {
    "airport":"North Eleuthera",
    "airport_code":"ELH",
    "latitude":25.47489929,
    "longitude":-76.6835022,
    "continent":"North America",
    "country":"Bahamas",
    "country_code":"BS",
    "city":"North Eleuthera",
    "city_code":"ELH",
    "group":"MEXSA",
    "market":"SUN",
    "nearby":[

    ]
  },
  {
    "airport":"South Bimini Airport",
    "airport_code":"BIM",
    "latitude":25.69989967,
    "longitude":-79.26470184,
    "continent":"North America",
    "country":"Bahamas",
    "country_code":"BS",
    "city":"Bimini",
    "city_code":"BIM",
    "group":"MEXSA",
    "market":"SUN",
    "nearby":[

    ]
  },
  {
    "airport":"Grand Bahama Int. Airport",
    "airport_code":"FPO",
    "latitude":26.55870056,
    "longitude":-78.69560242,
    "continent":"North America",
    "country":"Bahamas",
    "country_code":"BS",
    "city":"Freeport",
    "city_code":"FPO",
    "group":"MEXSA",
    "market":"SUN",
    "nearby":[

    ]
  },
  {
    "airport":"San Salvador Int.",
    "airport_code":"ZSA",
    "latitude":24.06329918,
    "longitude":-74.52400208,
    "continent":"North America",
    "country":"Bahamas",
    "country_code":"BS",
    "city":"San Salvador",
    "city_code":"ZSA",
    "group":"MEXSA",
    "market":"SUN",
    "nearby":[
      "NAS",
      "GGT"
    ]
  },
  {
    "airport":"Terrance B. Lettsome Int.",
    "airport_code":"EIS",
    "latitude":18.44479942,
    "longitude":-64.54299927,
    "continent":"North America",
    "country":"British Virgin Islands",
    "country_code":"VG",
    "city":"Tortola",
    "city_code":"TOV",
    "group":null,
    "market":"INT",
    "nearby":[

    ]
  },
  {
    "airport":"Minsk National Airport",
    "airport_code":"MSQ",
    "latitude":53.88249969,
    "longitude":28.03070068,
    "continent":"Europe",
    "country":"Belarus",
    "country_code":"BY",
    "city":"Minsk",
    "city_code":"MSQ",
    "group":"EUROPE",
    "market":"INT",
    "nearby":[

    ]
  },
  {
    "airport":"Cocos (Keeling) Islands Airport",
    "airport_code":"CCK",
    "latitude":-12.18830013,
    "longitude":96.83390045,
    "continent":"Oceania",
    "country":"Australian territory",
    "country_code":"CC",
    "city":"Cocos (Keeling) Islands",
    "city_code":"CCK",
    "group":null,
    "market":"INT",
    "nearby":[

    ]
  },
  {
    "airport":"Loubomo",
    "airport_code":"DIS",
    "latitude":-4.20635,
    "longitude":12.6599,
    "continent":"Africa",
    "country":"Democratic Republic of Congo",
    "country_code":"CD",
    "city":"Loubomo",
    "city_code":"DIS",
    "group":null,
    "market":"INT",
    "nearby":[

    ]
  },
  {
    "airport":"N'Djili Int.",
    "airport_code":"FIH",
    "latitude":-4.38575,
    "longitude":15.4446,
    "continent":"Africa",
    "country":"Democratic Republic of Congo",
    "country_code":"CD",
    "city":"Kinshasa",
    "city_code":"FIH",
    "group":null,
    "market":"INT",
    "nearby":[

    ]
  },
  {
    "airport":"Lubumbashi Int. Airport",
    "airport_code":"FBM",
    "latitude":-11.59130001,
    "longitude":27.53089905,
    "continent":"Africa",
    "country":"Democratic Republic of Congo",
    "country_code":"CD",
    "city":"Lubumbashi",
    "city_code":"FBM",
    "group":null,
    "market":"INT",
    "nearby":[

    ]
  },
  {
    "airport":"Goma Int.",
    "airport_code":"GOM",
    "latitude":-1.670809984,
    "longitude":29.2385006,
    "continent":"Africa",
    "country":"Democratic Republic of Congo",
    "country_code":"CD",
    "city":"Goma",
    "city_code":"GOM",
    "group":null,
    "market":"INT",
    "nearby":[

    ]
  },
  {
    "airport":"Maya\u2013Maya Int. Airport",
    "airport_code":"BZV",
    "latitude":-4.251699924,
    "longitude":15.25300026,
    "continent":"Africa",
    "country":"Congo",
    "country_code":"CG",
    "city":"Brazzaville",
    "city_code":"BZV",
    "group":null,
    "market":"INT",
    "nearby":[

    ]
  },
  {
    "airport":"A. A. Neto Int. Airport",
    "airport_code":"PNR",
    "latitude":-4.816030025,
    "longitude":11.88659954,
    "continent":"Africa",
    "country":"Congo",
    "country_code":"CG",
    "city":"Pointe Noire",
    "city_code":"PNR",
    "group":null,
    "market":"INT",
    "nearby":[

    ]
  },
  {
    "airport":"Basel-Mulhouse-Freiburg",
    "airport_code":"BSL",
    "latitude":47.59,
    "longitude":7.5291667,
    "continent":"Europe",
    "country":"Switzerland",
    "country_code":"CH",
    "city":"Basel",
    "city_code":"EAP",
    "group":"EUROPE",
    "market":"INT",
    "nearby":[

    ]
  },
  {
    "airport":"Basel Bad. Railway Station",
    "airport_code":"ZBA",
    "latitude":0,
    "longitude":0,
    "continent":"Europe",
    "country":"Switzerland",
    "country_code":"CH",
    "city":"Basel",
    "city_code":"EAP",
    "group":"EUROPE",
    "market":"INT",
    "nearby":[

    ]
  },
  {
    "airport":"Geneva Cointrin",
    "airport_code":"GVA",
    "latitude":46.23809814,
    "longitude":6.108950138,
    "continent":"Europe",
    "country":"Switzerland",
    "country_code":"CH",
    "city":"Geneva",
    "city_code":"GVA",
    "group":"EUROPE",
    "market":"INT",
    "nearby":[

    ]
  },
  {
    "airport":"Lugano",
    "airport_code":"LUG",
    "latitude":46.00429916,
    "longitude":8.910579681,
    "continent":"Europe",
    "country":"Switzerland",
    "country_code":"CH",
    "city":"Lugano",
    "city_code":"LUG",
    "group":"EUROPE",
    "market":"INT",
    "nearby":[

    ]
  },
  {
    "airport":"Bern Airport",
    "airport_code":"BRN",
    "latitude":46.91410065,
    "longitude":7.497149944,
    "continent":"Europe",
    "country":"Switzerland",
    "country_code":"CH",
    "city":"Bern",
    "city_code":"BRN",
    "group":"EUROPE",
    "market":"INT",
    "nearby":[

    ]
  },
  {
    "airport":"Zurich",
    "airport_code":"ZRH",
    "latitude":47.464699,
    "longitude":8.54917,
    "continent":"Europe",
    "country":"Switzerland",
    "country_code":"CH",
    "city":"Zurich",
    "city_code":"ZRH",
    "group":"EUROPE",
    "market":"INT",
    "nearby":[
      "GVA"
    ]
  },
  {
    "airport":"Sion",
    "airport_code":"SIR",
    "latitude":46.21960068,
    "longitude":7.326759815,
    "continent":"Europe",
    "country":"Switzerland",
    "country_code":"CH",
    "city":"Sion",
    "city_code":"SIR",
    "group":"EUROPE",
    "market":"INT",
    "nearby":[

    ]
  },
  {
    "airport":"F\u00e9lix Houphouet-Boigny",
    "airport_code":"ABJ",
    "latitude":5.261390209,
    "longitude":-3.926290035,
    "continent":"Africa",
    "country":"Ivory Coast",
    "country_code":"CI",
    "city":"Abidjan",
    "city_code":"ABJ",
    "group":null,
    "market":"INT",
    "nearby":[

    ]
  },
  {
    "airport":"Balmaceda Teniente Vidal Airport",
    "airport_code":"BBA",
    "latitude":-45.91609955,
    "longitude":-71.6894989,
    "continent":"South America",
    "country":"Chile",
    "country_code":"CL",
    "city":"Balmaceda",
    "city_code":"BBA",
    "group":"MEXSA",
    "market":"INT",
    "nearby":[

    ]
  },
  {
    "airport":"Arturo Merino Ben\u00edtez",
    "airport_code":"SCL",
    "latitude":-33.39300156,
    "longitude":-70.78579712,
    "continent":"South America",
    "country":"Chile",
    "country_code":"CL",
    "city":"Santiago",
    "city_code":"SCL",
    "group":"MEXSA",
    "market":"INT",
    "nearby":[

    ]
  },
  {
    "airport":"Douala",
    "airport_code":"DLA",
    "latitude":4.006080151,
    "longitude":9.719479561,
    "continent":"Africa",
    "country":"Cameroon",
    "country_code":"CM",
    "city":"Douala",
    "city_code":"DLA",
    "group":null,
    "market":"INT",
    "nearby":[

    ]
  },
  {
    "airport":"Yaound\u00e9-Nsimalen Int.",
    "airport_code":"NSI",
    "latitude":3.722559929,
    "longitude":11.5532999,
    "continent":"Africa",
    "country":"Cameroon",
    "country_code":"CM",
    "city":"Yaounde",
    "city_code":"YAO",
    "group":null,
    "market":"INT",
    "nearby":[

    ]
  },
  {
    "airport":"Bangui Int. Airport",
    "airport_code":"BGF",
    "latitude":4.398479939,
    "longitude":18.51880074,
    "continent":"Africa",
    "country":"Central African Republic",
    "country_code":"CF",
    "city":"Bangui",
    "city_code":"BGF",
    "group":null,
    "market":"INT",
    "nearby":[

    ]
  },
  {
    "airport":"Baotou Erliban",
    "airport_code":"BAV",
    "latitude":40.56000137,
    "longitude":109.9970016,
    "continent":"Asia",
    "country":"China",
    "country_code":"CN",
    "city":"Baotou",
    "city_code":"BAV",
    "group":"ASIA",
    "market":"INT",
    "nearby":[

    ]
  },
  {
    "airport":"Bijie",
    "airport_code":"BFJ",
    "latitude":27.267066,
    "longitude":105.472097,
    "continent":"Asia",
    "country":"China",
    "country_code":"CN",
    "city":"Bijie",
    "city_code":"BFJ",
    "group":"ASIA",
    "market":"INT",
    "nearby":[

    ]
  },
  {
    "airport":"Beihai Fucheng",
    "airport_code":"BHY",
    "latitude":21.5394,
    "longitude":109.293999,
    "continent":"Asia",
    "country":"China",
    "country_code":"CN",
    "city":"Beihai",
    "city_code":"BHY",
    "group":"ASIA",
    "market":"INT",
    "nearby":[

    ]
  },
  {
    "airport":"Beijing Capital Int.",
    "airport_code":"PEK",
    "latitude":40.08010101,
    "longitude":116.5849991,
    "continent":"Asia",
    "country":"China",
    "country_code":"CN",
    "city":"Beijing",
    "city_code":"BJS",
    "group":"ASIA",
    "market":"INT",
    "nearby":[

    ]
  },
  {
    "airport":"Beijing Daxing Int. Airport",
    "airport_code":"PKX",
    "latitude":39.509945,
    "longitude":116.41092,
    "continent":"Asia",
    "country":"China",
    "country_code":"CN",
    "city":"Beijing",
    "city_code":"BJS",
    "group":"ASIA",
    "market":"INT",
    "nearby":[

    ]
  },
  {
    "airport":"Changchun",
    "airport_code":"CGQ",
    "latitude":43.99620056,
    "longitude":125.6849976,
    "continent":"Asia",
    "country":"China",
    "country_code":"CN",
    "city":"Changchun",
    "city_code":"CGQ",
    "group":"ASIA",
    "market":"INT",
    "nearby":[

    ]
  },
  {
    "airport":"Changzhi Wangcun",
    "airport_code":"CIH",
    "latitude":36.247501,
    "longitude":113.125999,
    "continent":"Asia",
    "country":"China",
    "country_code":"CN",
    "city":"Changzhi",
    "city_code":"CIH",
    "group":"ASIA",
    "market":"INT",
    "nearby":[

    ]
  },
  {
    "airport":"Changsha Huanghua",
    "airport_code":"CSX",
    "latitude":28.18919945,
    "longitude":113.2200012,
    "continent":"Asia",
    "country":"China",
    "country_code":"CN",
    "city":"Changsha",
    "city_code":"CSX",
    "group":"ASIA",
    "market":"INT",
    "nearby":[

    ]
  },
  {
    "airport":"Chengdu Shuangliu Int.",
    "airport_code":"CTU",
    "latitude":30.57850075,
    "longitude":103.9469986,
    "continent":"Asia",
    "country":"China",
    "country_code":"CN",
    "city":"Chengdu",
    "city_code":"CTU",
    "group":"ASIA",
    "market":"INT",
    "nearby":[

    ]
  },
  {
    "airport":"Chongqing",
    "airport_code":"CKG",
    "latitude":29.71920013,
    "longitude":106.6419983,
    "continent":"Asia",
    "country":"China",
    "country_code":"CN",
    "city":"Chongqing",
    "city_code":"CKG",
    "group":"ASIA",
    "market":"INT",
    "nearby":[

    ]
  },
  {
    "airport":"Dalian",
    "airport_code":"DLC",
    "latitude":38.96569824,
    "longitude":121.5390015,
    "continent":"Asia",
    "country":"China",
    "country_code":"CN",
    "city":"Dalian",
    "city_code":"DLC",
    "group":"ASIA",
    "market":"INT",
    "nearby":[

    ]
  },
  {
    "airport":"Dongying Shengli",
    "airport_code":"DOY",
    "latitude":37.50859833,
    "longitude":118.788002,
    "continent":"Asia",
    "country":"China",
    "country_code":"CN",
    "city":"Dongying",
    "city_code":"DOY",
    "group":"ASIA",
    "market":"INT",
    "nearby":[

    ]
  },
  {
    "airport":"Fuzhou Changle Int.",
    "airport_code":"FOC",
    "latitude":25.93510056,
    "longitude":119.663002,
    "continent":"Asia",
    "country":"China",
    "country_code":"CN",
    "city":"Fuzhou",
    "city_code":"FOC",
    "group":"ASIA",
    "market":"INT",
    "nearby":[

    ]
  },
  {
    "airport":"Guangzhou Baiyun Int.",
    "airport_code":"CAN",
    "latitude":23.39240074,
    "longitude":113.2990036,
    "continent":"Asia",
    "country":"China",
    "country_code":"CN",
    "city":"Guangzhou",
    "city_code":"CAN",
    "group":"ASIA",
    "market":"INT",
    "nearby":[

    ]
  },
  {
    "airport":"Hulunbuir Hailar",
    "airport_code":"HLD",
    "latitude":49.20500183,
    "longitude":119.8249969,
    "continent":"Asia",
    "country":"China",
    "country_code":"CN",
    "city":"Hailar",
    "city_code":"HLD",
    "group":"ASIA",
    "market":"INT",
    "nearby":[

    ]
  },
  {
    "airport":"Huizhou Pingtan",
    "airport_code":"HUZ",
    "latitude":23.04999924,
    "longitude":114.5999985,
    "continent":"Asia",
    "country":"China",
    "country_code":"CN",
    "city":"Huizhou",
    "city_code":"HUZ",
    "group":"ASIA",
    "market":"INT",
    "nearby":[

    ]
  },
  {
    "airport":"Hanzhong Chenggu",
    "airport_code":"HZG",
    "latitude":33.134136,
    "longitude":107.206014,
    "continent":"Asia",
    "country":"China",
    "country_code":"CN",
    "city":"Hanzhong",
    "city_code":"HZG",
    "group":"ASIA",
    "market":"INT",
    "nearby":[

    ]
  },
  {
    "airport":"Yinchuan Hedong Int.",
    "airport_code":"INC",
    "latitude":0,
    "longitude":0,
    "continent":"Asia",
    "country":"China",
    "country_code":"CN",
    "city":"Yinchuan",
    "city_code":"INC",
    "group":"ASIA",
    "market":"INT",
    "nearby":[

    ]
  },
  {
    "airport":"Guilin Liangjiang Int.",
    "airport_code":"KWL",
    "latitude":25.21809959,
    "longitude":110.0390015,
    "continent":"Asia",
    "country":"China",
    "country_code":"CN",
    "city":"Guilin City",
    "city_code":"KWL",
    "group":"ASIA",
    "market":"INT",
    "nearby":[

    ]
  },
  {
    "airport":"Guiyang Longdongbao Int.",
    "airport_code":"KWE",
    "latitude":26.53849983,
    "longitude":106.8010025,
    "continent":"Asia",
    "country":"China",
    "country_code":"CN",
    "city":"Guiyang",
    "city_code":"KWE",
    "group":"ASIA",
    "market":"INT",
    "nearby":[

    ]
  },
  {
    "airport":"Lanzhou Zhongchuan Int.",
    "airport_code":"LHW",
    "latitude":36.51520157,
    "longitude":103.6200027,
    "continent":"Asia",
    "country":"China",
    "country_code":"CN",
    "city":"Lanzhou",
    "city_code":"LHW",
    "group":"ASIA",
    "market":"INT",
    "nearby":[

    ]
  },
  {
    "airport":"Mianyang Nanjiao",
    "airport_code":"MIG",
    "latitude":31.42810059,
    "longitude":104.7409973,
    "continent":"Asia",
    "country":"China",
    "country_code":"CN",
    "city":"Mianyang",
    "city_code":"MIG",
    "group":"ASIA",
    "market":"INT",
    "nearby":[

    ]
  },
  {
    "airport":"Hangzhou Xiaoshan Int.",
    "airport_code":"HGH",
    "latitude":30.22949982,
    "longitude":120.4339981,
    "continent":"Asia",
    "country":"China",
    "country_code":"CN",
    "city":"Hangzhou",
    "city_code":"HGH",
    "group":"ASIA",
    "market":"INT",
    "nearby":[

    ]
  },
  {
    "airport":"Harbin Taiping Int.",
    "airport_code":"HRB",
    "latitude":45.62340164,
    "longitude":126.25,
    "continent":"Asia",
    "country":"China",
    "country_code":"CN",
    "city":"Harbin",
    "city_code":"HRB",
    "group":"ASIA",
    "market":"INT",
    "nearby":[

    ]
  },
  {
    "airport":"Haikou Meilan Int.",
    "airport_code":"HAK",
    "latitude":19.93490028,
    "longitude":110.4589996,
    "continent":"Asia",
    "country":"China",
    "country_code":"CN",
    "city":"Haikou",
    "city_code":"HAK",
    "group":"ASIA",
    "market":"INT",
    "nearby":[

    ]
  },
  {
    "airport":"Hefei Xinqiao Int.",
    "airport_code":"HFE",
    "latitude":31.78000069,
    "longitude":117.2979965,
    "continent":"Asia",
    "country":"China",
    "country_code":"CN",
    "city":"Hefei",
    "city_code":"HFE",
    "group":"ASIA",
    "market":"INT",
    "nearby":[

    ]
  },
  {
    "airport":"Baita Int.",
    "airport_code":"HET",
    "latitude":40.851398,
    "longitude":111.823997,
    "continent":"Asia",
    "country":"China",
    "country_code":"CN",
    "city":"Hohhot",
    "city_code":"HET",
    "group":"ASIA",
    "market":"INT",
    "nearby":[

    ]
  },
  {
    "airport":"Quanzhou Jinjiang Int. Airport",
    "airport_code":"JJN",
    "latitude":24.7964,
    "longitude":118.589996,
    "continent":"Asia",
    "country":"China",
    "country_code":"CN",
    "city":"Jinjiang",
    "city_code":"JJN",
    "group":"ASIA",
    "market":"INT",
    "nearby":[

    ]
  },
  {
    "airport":"Kunming Changshui Int.",
    "airport_code":"KMG",
    "latitude":25.1019444,
    "longitude":102.9291667,
    "continent":"Asia",
    "country":"China",
    "country_code":"CN",
    "city":"Kunming",
    "city_code":"KMG",
    "group":"ASIA",
    "market":"INT",
    "nearby":[

    ]
  },
  {
    "airport":"Nanchang Changbei Int.",
    "airport_code":"KHN",
    "latitude":28.86499977,
    "longitude":115.9000015,
    "continent":"Asia",
    "country":"China",
    "country_code":"CN",
    "city":"Nanchang",
    "city_code":"KHN",
    "group":"ASIA",
    "market":"INT",
    "nearby":[

    ]
  },
  {
    "airport":"Longyan Guanzhishan",
    "airport_code":"LCX",
    "latitude":25.67469978,
    "longitude":116.7470016,
    "continent":"Asia",
    "country":"China",
    "country_code":"CN",
    "city":"Longyan",
    "city_code":"LCX",
    "group":"ASIA",
    "market":"INT",
    "nearby":[

    ]
  },
  {
    "airport":"Nanjing Lukou",
    "airport_code":"NKG",
    "latitude":31.74200058,
    "longitude":118.8619995,
    "continent":"Asia",
    "country":"China",
    "country_code":"CN",
    "city":"Nanjing",
    "city_code":"NKG",
    "group":"ASIA",
    "market":"INT",
    "nearby":[

    ]
  },
  {
    "airport":"Nanning Wuxu Int.",
    "airport_code":"NNG",
    "latitude":22.60829926,
    "longitude":108.1719971,
    "continent":"Asia",
    "country":"China",
    "country_code":"CN",
    "city":"Nanning",
    "city_code":"NNG",
    "group":"ASIA",
    "market":"INT",
    "nearby":[

    ]
  },
  {
    "airport":"Liuting",
    "airport_code":"TAO",
    "latitude":36.26610184,
    "longitude":120.3740005,
    "continent":"Asia",
    "country":"China",
    "country_code":"CN",
    "city":"Qingdao",
    "city_code":"TAO",
    "group":"ASIA",
    "market":"INT",
    "nearby":[

    ]
  },
  {
    "airport":"Sanya Phoenix Int.",
    "airport_code":"SYX",
    "latitude":18.30290031,
    "longitude":109.4120026,
    "continent":"Asia",
    "country":"China",
    "country_code":"CN",
    "city":"Sanya",
    "city_code":"SYX",
    "group":"ASIA",
    "market":"INT",
    "nearby":[

    ]
  },
  {
    "airport":"Shijiazhuang Zhengding Int.",
    "airport_code":"SJW",
    "latitude":38.28070068,
    "longitude":114.6969986,
    "continent":"Asia",
    "country":"China",
    "country_code":"CN",
    "city":"Shijiazhuang",
    "city_code":"SJW",
    "group":"ASIA",
    "market":"INT",
    "nearby":[

    ]
  },
  {
    "airport":"Pudong Int.",
    "airport_code":"PVG",
    "latitude":31.14340019,
    "longitude":121.8050003,
    "continent":"Asia",
    "country":"China",
    "country_code":"CN",
    "city":"Shanghai",
    "city_code":"SHA",
    "group":"ASIA",
    "market":"INT",
    "nearby":[

    ]
  },
  {
    "airport":"Hongqiao Int.",
    "airport_code":"SHA",
    "latitude":31.19790077,
    "longitude":121.3359985,
    "continent":"Asia",
    "country":"China",
    "country_code":"CN",
    "city":"Shanghai",
    "city_code":"SHA",
    "group":"ASIA",
    "market":"INT",
    "nearby":[

    ]
  },
  {
    "airport":"Taoxian",
    "airport_code":"SHE",
    "latitude":41.63980103,
    "longitude":123.4830017,
    "continent":"Asia",
    "country":"China",
    "country_code":"CN",
    "city":"Shenyang",
    "city_code":"SHE",
    "group":"ASIA",
    "market":"INT",
    "nearby":[

    ]
  },
  {
    "airport":"Shenzhen Bao'an Int.",
    "airport_code":"SZX",
    "latitude":22.63929939,
    "longitude":113.810997,
    "continent":"Asia",
    "country":"China",
    "country_code":"CN",
    "city":"Shenzhen",
    "city_code":"SZX",
    "group":"ASIA",
    "market":"INT",
    "nearby":[

    ]
  },
  {
    "airport":"Tongliao",
    "airport_code":"TGO",
    "latitude":43.556702,
    "longitude":122.199997,
    "continent":"Asia",
    "country":"China",
    "country_code":"CN",
    "city":"Tongliao",
    "city_code":"TGO",
    "group":"ASIA",
    "market":"INT",
    "nearby":[

    ]
  },
  {
    "airport":"Tianjin Binhai Int.",
    "airport_code":"TSN",
    "latitude":39.12440109,
    "longitude":117.3460007,
    "continent":"Asia",
    "country":"China",
    "country_code":"CN",
    "city":"Tianjin",
    "city_code":"TSN",
    "group":"ASIA",
    "market":"INT",
    "nearby":[

    ]
  },
  {
    "airport":"Taiyuan Wusu Int.",
    "airport_code":"TYN",
    "latitude":37.74689865,
    "longitude":112.6279984,
    "continent":"Asia",
    "country":"China",
    "country_code":"CN",
    "city":"Taiyuan",
    "city_code":"TYN",
    "group":"ASIA",
    "market":"INT",
    "nearby":[

    ]
  },
  {
    "airport":"\u00dcr\u00fcmqi Int.",
    "airport_code":"URC",
    "latitude":43.90710068,
    "longitude":87.47419739,
    "continent":"Asia",
    "country":"China",
    "country_code":"CN",
    "city":"\u00dcr\u00fcmqi",
    "city_code":"URC",
    "group":"ASIA",
    "market":"INT",
    "nearby":[

    ]
  },
  {
    "airport":"Wenzhou Longwan Int.",
    "airport_code":"WNZ",
    "latitude":27.912201,
    "longitude":120.851997,
    "continent":"Asia",
    "country":"China",
    "country_code":"CN",
    "city":"Wenzhou",
    "city_code":"WNZ",
    "group":"ASIA",
    "market":"INT",
    "nearby":[

    ]
  },
  {
    "airport":"Wuhan Tianhe Int.",
    "airport_code":"WUH",
    "latitude":30.7838,
    "longitude":114.208,
    "continent":"Asia",
    "country":"China",
    "country_code":"CN",
    "city":"Wuhan",
    "city_code":"WUH",
    "group":"ASIA",
    "market":"INT",
    "nearby":[

    ]
  },
  {
    "airport":"Sunan Shuofang Int.",
    "airport_code":"WUX",
    "latitude":31.49440002,
    "longitude":120.4290009,
    "continent":"Asia",
    "country":"China",
    "country_code":"CN",
    "city":"Wuxi",
    "city_code":"WUX",
    "group":"ASIA",
    "market":"INT",
    "nearby":[

    ]
  },
  {
    "airport":"Xi'an Xianyang Int.",
    "airport_code":"XIY",
    "latitude":34.447102,
    "longitude":108.751999,
    "continent":"Asia",
    "country":"China",
    "country_code":"CN",
    "city":"Xi An (Xiguan)",
    "city_code":"SIA",
    "group":"ASIA",
    "market":"INT",
    "nearby":[

    ]
  },
  {
    "airport":"Xiangyang Liuji",
    "airport_code":"XFN",
    "latitude":32.1506,
    "longitude":112.291,
    "continent":"Asia",
    "country":"China",
    "country_code":"CN",
    "city":"Xiangyang",
    "city_code":"XFN",
    "group":"ASIA",
    "market":"INT",
    "nearby":[

    ]
  },
  {
    "airport":"Xiamen",
    "airport_code":"XMN",
    "latitude":24.54400063,
    "longitude":118.1279984,
    "continent":"Asia",
    "country":"China",
    "country_code":"CN",
    "city":"Xiamen",
    "city_code":"XMN",
    "group":"ASIA",
    "market":"INT",
    "nearby":[

    ]
  },
  {
    "airport":"Yantai Penglai Int.",
    "airport_code":"YNT",
    "latitude":37.40169907,
    "longitude":121.3720016,
    "continent":"Asia",
    "country":"China",
    "country_code":"CN",
    "city":"Yantai",
    "city_code":"YNT",
    "group":"ASIA",
    "market":"INT",
    "nearby":[

    ]
  },
  {
    "airport":"Changbaishan Airport",
    "airport_code":"NBS",
    "latitude":42.066944,
    "longitude":127.602222,
    "continent":"Asia",
    "country":"China",
    "country_code":"CN",
    "city":"Changbaishan",
    "city_code":"NBS",
    "group":"ASIA",
    "market":"INT",
    "nearby":[

    ]
  },
  {
    "airport":"Liupanshan Airport",
    "airport_code":"GYU",
    "latitude":36.07888889,
    "longitude":106.2169444,
    "continent":"Asia",
    "country":"China",
    "country_code":"CN",
    "city":"Guyuan",
    "city_code":"GYU",
    "group":"ASIA",
    "market":"INT",
    "nearby":[

    ]
  },
  {
    "airport":"Shapotou Airport",
    "airport_code":"ZHY",
    "latitude":37.573125,
    "longitude":105.154454,
    "continent":"Asia",
    "country":"China",
    "country_code":"CN",
    "city":"Zhongwei",
    "city_code":"ZHY",
    "group":"ASIA",
    "market":"INT",
    "nearby":[

    ]
  },
  {
    "airport":"Shaxian Airport",
    "airport_code":"SQJ",
    "latitude":26.4263,
    "longitude":117.8336,
    "continent":"Asia",
    "country":"China",
    "country_code":"CN",
    "city":"Sanming",
    "city_code":"SQJ",
    "group":"ASIA",
    "market":"INT",
    "nearby":[

    ]
  },
  {
    "airport":"Jiuhuashan Airport",
    "airport_code":"JUH",
    "latitude":30.7403,
    "longitude":117.6856,
    "continent":"Asia",
    "country":"China",
    "country_code":"CN",
    "city":"Chizhou",
    "city_code":"JUH",
    "group":"ASIA",
    "market":"INT",
    "nearby":[

    ]
  },
  {
    "airport":"Hehua Airport",
    "airport_code":"DYG",
    "latitude":29.1028,
    "longitude":110.443001,
    "continent":"Asia",
    "country":"China",
    "country_code":"CN",
    "city":"Zhangjiajie",
    "city_code":"DYG",
    "group":"ASIA",
    "market":"INT",
    "nearby":[

    ]
  },
  {
    "airport":"Caojiabao Airport",
    "airport_code":"XNN",
    "latitude":36.5275,
    "longitude":102.042999,
    "continent":"Asia",
    "country":"China",
    "country_code":"CN",
    "city":"Xining",
    "city_code":"XNN",
    "group":"ASIA",
    "market":"INT",
    "nearby":[

    ]
  },
  {
    "airport":"Sanyi Airport",
    "airport_code":"LJG",
    "latitude":26.68000031,
    "longitude":100.2460022,
    "continent":"Asia",
    "country":"China",
    "country_code":"CN",
    "city":"Lijiang",
    "city_code":"LJG",
    "group":"ASIA",
    "market":"INT",
    "nearby":[

    ]
  },
  {
    "airport":"Yanji Chaoyangchuan",
    "airport_code":"YNJ",
    "latitude":42.88280106,
    "longitude":129.451004,
    "continent":"Asia",
    "country":"China",
    "country_code":"CN",
    "city":"Yanji",
    "city_code":"YNJ",
    "group":"ASIA",
    "market":"INT",
    "nearby":[

    ]
  },
  {
    "airport":"Zhengzhou Xinzheng Int.",
    "airport_code":"CGO",
    "latitude":34.5196991,
    "longitude":113.8410034,
    "continent":"Asia",
    "country":"China",
    "country_code":"CN",
    "city":"Zhengzhou",
    "city_code":"CGO",
    "group":"ASIA",
    "market":"INT",
    "nearby":[

    ]
  },
  {
    "airport":"Zhuhai Sanzao",
    "airport_code":"ZUH",
    "latitude":22.006399,
    "longitude":113.375999,
    "continent":"Asia",
    "country":"China",
    "country_code":"CN",
    "city":"Zhuhai",
    "city_code":"ZUH",
    "group":"ASIA",
    "market":"INT",
    "nearby":[

    ]
  },
  {
    "airport":"Aba Hongyuan",
    "airport_code":"AHJ",
    "latitude":32.53154,
    "longitude":102.35224,
    "continent":"Asia",
    "country":"China",
    "country_code":"CN",
    "city":"Aba Hongyuan",
    "city_code":"AHJ",
    "group":"ASIA",
    "market":"INT",
    "nearby":[

    ]
  },
  {
    "airport":"Aksu",
    "airport_code":"AKU",
    "latitude":41.262501,
    "longitude":80.291702,
    "continent":"Asia",
    "country":"China",
    "country_code":"CN",
    "city":"Aksu",
    "city_code":"AKU",
    "group":"ASIA",
    "market":"INT",
    "nearby":[

    ]
  },
  {
    "airport":"Qamdo Bamda Airport",
    "airport_code":"BPX",
    "latitude":30.55360031,
    "longitude":97.10829926,
    "continent":"Asia",
    "country":"China",
    "country_code":"CN",
    "city":"Qamdo\\/Changdu",
    "city_code":"BPX",
    "group":"ASIA",
    "market":"INT",
    "nearby":[

    ]
  },
  {
    "airport":"Chaoyang",
    "airport_code":"CHG",
    "latitude":41.538101,
    "longitude":120.434998,
    "continent":"Asia",
    "country":"China",
    "country_code":"CN",
    "city":"Chaoyang",
    "city_code":"CHG",
    "group":"ASIA",
    "market":"INT",
    "nearby":[

    ]
  },
  {
    "airport":"Chifeng Yulong Airport",
    "airport_code":"CIF",
    "latitude":42.23500061,
    "longitude":118.9079971,
    "continent":"Asia",
    "country":"China",
    "country_code":"CN",
    "city":"Chifeng",
    "city_code":"CIF",
    "group":"ASIA",
    "market":"INT",
    "nearby":[

    ]
  },
  {
    "airport":"Changzhou Benniu",
    "airport_code":"CZX",
    "latitude":31.919701,
    "longitude":119.778999,
    "continent":"Asia",
    "country":"China",
    "country_code":"CN",
    "city":"Changzhou",
    "city_code":"CZX",
    "group":"ASIA",
    "market":"INT",
    "nearby":[

    ]
  },
  {
    "airport":"Datong Yungang Airport",
    "airport_code":"DAT",
    "latitude":40.060299,
    "longitude":113.482002,
    "continent":"Asia",
    "country":"China",
    "country_code":"CN",
    "city":"Datong",
    "city_code":"DAT",
    "group":"ASIA",
    "market":"INT",
    "nearby":[

    ]
  },
  {
    "airport":"Dazhou Heshi",
    "airport_code":"DAX",
    "latitude":31.1302,
    "longitude":107.4295,
    "continent":"Asia",
    "country":"China",
    "country_code":"CN",
    "city":"Dazhou",
    "city_code":"DAX",
    "group":"ASIA",
    "market":"INT",
    "nearby":[

    ]
  },
  {
    "airport":"Daocheng Yading Airport",
    "airport_code":"DCY",
    "latitude":29.323056,
    "longitude":100.053333,
    "continent":"Asia",
    "country":"China",
    "country_code":"CN",
    "city":"Daocheng",
    "city_code":"DCY",
    "group":"ASIA",
    "market":"INT",
    "nearby":[

    ]
  },
  {
    "airport":"Dandong Langtou Airport",
    "airport_code":"DDG",
    "latitude":40.0247,
    "longitude":124.286003,
    "continent":"Asia",
    "country":"China",
    "country_code":"CN",
    "city":"Dandong",
    "city_code":"DDG",
    "group":"ASIA",
    "market":"INT",
    "nearby":[

    ]
  },
  {
    "airport":"Dali",
    "airport_code":"DLU",
    "latitude":25.649401,
    "longitude":100.319,
    "continent":"Asia",
    "country":"China",
    "country_code":"CN",
    "city":"Dali",
    "city_code":"DLU",
    "group":"ASIA",
    "market":"INT",
    "nearby":[

    ]
  },
  {
    "airport":"Dunhuang",
    "airport_code":"DNH",
    "latitude":40.16109848,
    "longitude":94.80919647,
    "continent":"Asia",
    "country":"China",
    "country_code":"CN",
    "city":"Dunhuang",
    "city_code":"DNH",
    "group":"ASIA",
    "market":"INT",
    "nearby":[

    ]
  },
  {
    "airport":"Daqing Sartu",
    "airport_code":"DQA",
    "latitude":46.74638889,
    "longitude":125.1405556,
    "continent":"Asia",
    "country":"China",
    "country_code":"CN",
    "city":"Daqing",
    "city_code":"DQA",
    "group":"ASIA",
    "market":"INT",
    "nearby":[

    ]
  },
  {
    "airport":"Ordos Ejin Horo Airport",
    "airport_code":"DSN",
    "latitude":39.49,
    "longitude":109.8613889,
    "continent":"Asia",
    "country":"China",
    "country_code":"CN",
    "city":"Ordos",
    "city_code":"DSN",
    "group":"ASIA",
    "market":"INT",
    "nearby":[

    ]
  },
  {
    "airport":"Fuyang Xiguan Airport",
    "airport_code":"FUG",
    "latitude":32.882157,
    "longitude":115.734364,
    "continent":"Asia",
    "country":"China",
    "country_code":"CN",
    "city":"Fuyang",
    "city_code":"FUG",
    "group":"ASIA",
    "market":"INT",
    "nearby":[

    ]
  },
  {
    "airport":"Fuyuan Dongji Airport",
    "airport_code":"FYJ",
    "latitude":48.199494,
    "longitude":134.366447,
    "continent":"Asia",
    "country":"China",
    "country_code":"CN",
    "city":"Fuyuan",
    "city_code":"FYJ",
    "group":"ASIA",
    "market":"INT",
    "nearby":[

    ]
  },
  {
    "airport":"Guangyuan Panlong Airport",
    "airport_code":"GYS",
    "latitude":32.39110184,
    "longitude":105.7020035,
    "continent":"Asia",
    "country":"China",
    "country_code":"CN",
    "city":"Guangyuan",
    "city_code":"GYS",
    "group":"ASIA",
    "market":"INT",
    "nearby":[

    ]
  },
  {
    "airport":"Huaian",
    "airport_code":"HIA",
    "latitude":33.79083333,
    "longitude":119.125,
    "continent":"Asia",
    "country":"China",
    "country_code":"CN",
    "city":"Huaian",
    "city_code":"HIA",
    "group":"ASIA",
    "market":"INT",
    "nearby":[

    ]
  },
  {
    "airport":"Ulanhot",
    "airport_code":"HLH",
    "latitude":46.195333,
    "longitude":122.008333,
    "continent":"Asia",
    "country":"China",
    "country_code":"CN",
    "city":"Ulanhot",
    "city_code":"HLH",
    "group":"ASIA",
    "market":"INT",
    "nearby":[

    ]
  },
  {
    "airport":"Hami",
    "airport_code":"HMI",
    "latitude":42.8414,
    "longitude":93.669197,
    "continent":"Asia",
    "country":"China",
    "country_code":"CN",
    "city":"Hami",
    "city_code":"HMI",
    "group":"ASIA",
    "market":"INT",
    "nearby":[

    ]
  },
  {
    "airport":"Zhoushan",
    "airport_code":"HSN",
    "latitude":29.93420029,
    "longitude":122.3619995,
    "continent":"Asia",
    "country":"China",
    "country_code":"CN",
    "city":"Zhoushan",
    "city_code":"HSN",
    "group":"ASIA",
    "market":"INT",
    "nearby":[

    ]
  },
  {
    "airport":"Hotan",
    "airport_code":"HTN",
    "latitude":37.03850174,
    "longitude":79.86489868,
    "continent":"Asia",
    "country":"China",
    "country_code":"CN",
    "city":"Hotan",
    "city_code":"HTN",
    "group":"ASIA",
    "market":"INT",
    "nearby":[

    ]
  },
  {
    "airport":"Taizhou",
    "airport_code":"HYN",
    "latitude":28.56220055,
    "longitude":121.4290009,
    "continent":"Asia",
    "country":"China",
    "country_code":"CN",
    "city":"Taizhou",
    "city_code":"HYN",
    "group":"ASIA",
    "market":"INT",
    "nearby":[

    ]
  },
  {
    "airport":"Jingdezhen Luojia",
    "airport_code":"JDZ",
    "latitude":29.33860016,
    "longitude":117.1760025,
    "continent":"Asia",
    "country":"China",
    "country_code":"CN",
    "city":"Jingdezhen",
    "city_code":"JDZ",
    "group":"ASIA",
    "market":"INT",
    "nearby":[

    ]
  },
  {
    "airport":"Jinggangshan Airport",
    "airport_code":"JGS",
    "latitude":26.85689926,
    "longitude":114.7369995,
    "continent":"Asia",
    "country":"China",
    "country_code":"CN",
    "city":"Ji'an",
    "city_code":"JGS",
    "group":"ASIA",
    "market":"INT",
    "nearby":[

    ]
  },
  {
    "airport":"Jiamusi Dongjiao Airport",
    "airport_code":"JMU",
    "latitude":46.84339905,
    "longitude":130.4649963,
    "continent":"Asia",
    "country":"China",
    "country_code":"CN",
    "city":"Jiamusi",
    "city_code":"JMU",
    "group":"ASIA",
    "market":"INT",
    "nearby":[

    ]
  },
  {
    "airport":"Quzhou, Zhejiang Province",
    "airport_code":"JUZ",
    "latitude":28.965799,
    "longitude":118.899002,
    "continent":"Asia",
    "country":"China",
    "country_code":"CN",
    "city":"Quzhou, Zhejiang Province",
    "city_code":"JUZ",
    "group":"ASIA",
    "market":"INT",
    "nearby":[

    ]
  },
  {
    "airport":"Jiuzhaigou",
    "airport_code":"JZH",
    "latitude":32.85333333,
    "longitude":103.6822222,
    "continent":"Asia",
    "country":"China",
    "country_code":"CN",
    "city":"Jiuzhaigou",
    "city_code":"JZH",
    "group":"ASIA",
    "market":"INT",
    "nearby":[

    ]
  },
  {
    "airport":"Kashi",
    "airport_code":"KHG",
    "latitude":39.54290009,
    "longitude":76.01999664,
    "continent":"Asia",
    "country":"China",
    "country_code":"CN",
    "city":"Kashi",
    "city_code":"KHG",
    "group":"ASIA",
    "market":"INT",
    "nearby":[

    ]
  },
  {
    "airport":"Ganzhou Huangjin Airport",
    "airport_code":"KOW",
    "latitude":25.853333,
    "longitude":114.778889,
    "continent":"Asia",
    "country":"China",
    "country_code":"CN",
    "city":"Ganzhou",
    "city_code":"KOW",
    "group":"ASIA",
    "market":"INT",
    "nearby":[

    ]
  },
  {
    "airport":"Korla",
    "airport_code":"KRL",
    "latitude":41.69779968,
    "longitude":86.12889862,
    "continent":"Asia",
    "country":"China",
    "country_code":"CN",
    "city":"Korla",
    "city_code":"KRL",
    "group":"ASIA",
    "market":"INT",
    "nearby":[

    ]
  },
  {
    "airport":"Karamay",
    "airport_code":"KRY",
    "latitude":45.46655,
    "longitude":84.9527,
    "continent":"Asia",
    "country":"China",
    "country_code":"CN",
    "city":"Karamay",
    "city_code":"KRY",
    "group":"ASIA",
    "market":"INT",
    "nearby":[

    ]
  },
  {
    "airport":"Linfen Qiaoli Airport",
    "airport_code":"LFQ",
    "latitude":36.132629,
    "longitude":111.641236,
    "continent":"Asia",
    "country":"China",
    "country_code":"CN",
    "city":"Linfen",
    "city_code":"LFQ",
    "group":"ASIA",
    "market":"INT",
    "nearby":[

    ]
  },
  {
    "airport":"Liupanshui Yuezhao Airport",
    "airport_code":"LPF",
    "latitude":26.609417,
    "longitude":104.979,
    "continent":"Asia",
    "country":"China",
    "country_code":"CN",
    "city":"Liupanshui",
    "city_code":"LPF",
    "group":"ASIA",
    "market":"INT",
    "nearby":[

    ]
  },
  {
    "airport":"Lhasa Gonggar",
    "airport_code":"LXA",
    "latitude":29.29780006,
    "longitude":90.91190338,
    "continent":"Asia",
    "country":"China",
    "country_code":"CN",
    "city":"Gongga Xian",
    "city_code":"LXA",
    "group":"ASIA",
    "market":"INT",
    "nearby":[

    ]
  },
  {
    "airport":"Linyi Shubuling",
    "airport_code":"LYI",
    "latitude":35.04610062,
    "longitude":118.4120026,
    "continent":"Asia",
    "country":"China",
    "country_code":"CN",
    "city":"Linyi",
    "city_code":"LYI",
    "group":"ASIA",
    "market":"INT",
    "nearby":[

    ]
  },
  {
    "airport":"Liuzhou Bailian Airport",
    "airport_code":"LZH",
    "latitude":24.2075,
    "longitude":109.390999,
    "continent":"Asia",
    "country":"China",
    "country_code":"CN",
    "city":"Liuzhou",
    "city_code":"LZH",
    "group":"ASIA",
    "market":"INT",
    "nearby":[

    ]
  },
  {
    "airport":"Luzhou Lantian Airport",
    "airport_code":"LZO",
    "latitude":28.85219955,
    "longitude":105.3929977,
    "continent":"Asia",
    "country":"China",
    "country_code":"CN",
    "city":"Luzhou",
    "city_code":"LZO",
    "group":"ASIA",
    "market":"INT",
    "nearby":[

    ]
  },
  {
    "airport":"Nyingchi Mainling Airport",
    "airport_code":"LZY",
    "latitude":29.30330086,
    "longitude":94.33529663,
    "continent":"Asia",
    "country":"China",
    "country_code":"CN",
    "city":"Nyingchi\\/Linzhi",
    "city_code":"LZY",
    "group":"ASIA",
    "market":"INT",
    "nearby":[

    ]
  },
  {
    "airport":"Mudanjiang Int.",
    "airport_code":"MDG",
    "latitude":44.52410126,
    "longitude":129.5690002,
    "continent":"Asia",
    "country":"China",
    "country_code":"CN",
    "city":"Mudanjiang",
    "city_code":"MDG",
    "group":"ASIA",
    "market":"INT",
    "nearby":[

    ]
  },
  {
    "airport":"Qiqihar Sanjiazi Airport",
    "airport_code":"NDG",
    "latitude":47.23960114,
    "longitude":123.9179993,
    "continent":"Asia",
    "country":"China",
    "country_code":"CN",
    "city":"Qiqihar",
    "city_code":"NDG",
    "group":"ASIA",
    "market":"INT",
    "nearby":[

    ]
  },
  {
    "airport":"Ningbo Lishe Int.",
    "airport_code":"NGB",
    "latitude":29.82670021,
    "longitude":121.461998,
    "continent":"Asia",
    "country":"China",
    "country_code":"CN",
    "city":"Ningbo",
    "city_code":"NGB",
    "group":"ASIA",
    "market":"INT",
    "nearby":[

    ]
  },
  {
    "airport":"Nantong Xingdong",
    "airport_code":"NTG",
    "latitude":0,
    "longitude":0,
    "continent":"Asia",
    "country":"China",
    "country_code":"CN",
    "city":"Nantong",
    "city_code":"NTG",
    "group":"ASIA",
    "market":"INT",
    "nearby":[

    ]
  },
  {
    "airport":"Manzhouli Xijiao Airport",
    "airport_code":"NZH",
    "latitude":49.566667,
    "longitude":117.33,
    "continent":"Asia",
    "country":"China",
    "country_code":"CN",
    "city":"Manzhouli",
    "city_code":"NZH",
    "group":"ASIA",
    "market":"INT",
    "nearby":[

    ]
  },
  {
    "airport":"Bao'anying Airport",
    "airport_code":"PZI",
    "latitude":26.54,
    "longitude":101.79852,
    "continent":"Asia",
    "country":"China",
    "country_code":"CN",
    "city":"Panzhihua",
    "city_code":"PZI",
    "group":"ASIA",
    "market":"INT",
    "nearby":[

    ]
  },
  {
    "airport":"Bayannur Tianjitai Airport",
    "airport_code":"RLK",
    "latitude":40.926,
    "longitude":107.7428,
    "continent":"Asia",
    "country":"China",
    "country_code":"CN",
    "city":"Bayannur",
    "city_code":"RLK",
    "group":"ASIA",
    "market":"INT",
    "nearby":[

    ]
  },
  {
    "airport":"Shihezi Huayuan Airport",
    "airport_code":"SHF",
    "latitude":0,
    "longitude":0,
    "continent":"Asia",
    "country":"China",
    "country_code":"CN",
    "city":"Shihezi",
    "city_code":"SHF",
    "group":"ASIA",
    "market":"INT",
    "nearby":[

    ]
  },
  {
    "airport":"Jieyang Chaoshan Int.",
    "airport_code":"SWA",
    "latitude":23.552,
    "longitude":116.5033,
    "continent":"Asia",
    "country":"China",
    "country_code":"CN",
    "city":"Shantou",
    "city_code":"SWA",
    "group":"ASIA",
    "market":"INT",
    "nearby":[

    ]
  },
  {
    "airport":"Teng Chong",
    "airport_code":"TCZ",
    "latitude":24.93805556,
    "longitude":98.48583333,
    "continent":"Asia",
    "country":"China",
    "country_code":"CN",
    "city":"Teng Chong",
    "city_code":"TCZ",
    "group":"ASIA",
    "market":"INT",
    "nearby":[

    ]
  },
  {
    "airport":"Turpan Jiaohe Airport",
    "airport_code":"TLQ",
    "latitude":43.0308,
    "longitude":89.0987,
    "continent":"Asia",
    "country":"China",
    "country_code":"CN",
    "city":"Turpan",
    "city_code":"TLQ",
    "group":"ASIA",
    "market":"INT",
    "nearby":[

    ]
  },
  {
    "airport":"Jinan Yaoqiang Int.",
    "airport_code":"TNA",
    "latitude":36.85720062,
    "longitude":117.2160034,
    "continent":"Asia",
    "country":"China",
    "country_code":"CN",
    "city":"Jinan",
    "city_code":"TNA",
    "group":"ASIA",
    "market":"INT",
    "nearby":[

    ]
  },
  {
    "airport":"Tonghua Sanyuanpu Airport",
    "airport_code":"TNH",
    "latitude":42.25388889,
    "longitude":125.7033333,
    "continent":"Asia",
    "country":"China",
    "country_code":"CN",
    "city":"Tonghua",
    "city_code":"TNH",
    "group":"ASIA",
    "market":"INT",
    "nearby":[

    ]
  },
  {
    "airport":"Huangshan Tunxi Int. Airport",
    "airport_code":"TXN",
    "latitude":29.73329926,
    "longitude":118.2559967,
    "continent":"Asia",
    "country":"China",
    "country_code":"CN",
    "city":"Huangshan",
    "city_code":"TXN",
    "group":"ASIA",
    "market":"INT",
    "nearby":[

    ]
  },
  {
    "airport":"Ulanqab Jining Airport",
    "airport_code":"UCB",
    "latitude":41.129722,
    "longitude":113.108056,
    "continent":"Asia",
    "country":"China",
    "country_code":"CN",
    "city":"Ulanqab",
    "city_code":"UCB",
    "group":"ASIA",
    "market":"INT",
    "nearby":[

    ]
  },
  {
    "airport":"Yulin Yuyang Airport",
    "airport_code":"UYN",
    "latitude":38.35971,
    "longitude":109.590927,
    "continent":"Asia",
    "country":"China",
    "country_code":"CN",
    "city":"Yulin",
    "city_code":"UYN",
    "group":"ASIA",
    "market":"INT",
    "nearby":[

    ]
  },
  {
    "airport":"Shiyan Wudangshan Airport",
    "airport_code":"WDS",
    "latitude":32.591667,
    "longitude":110.907778,
    "continent":"Asia",
    "country":"China",
    "country_code":"CN",
    "city":"Shiyan",
    "city_code":"EJQ",
    "group":"ASIA",
    "market":"INT",
    "nearby":[

    ]
  },
  {
    "airport":"Weihai Dashuibo",
    "airport_code":"WEH",
    "latitude":37.18709946,
    "longitude":122.2289963,
    "continent":"Asia",
    "country":"China",
    "country_code":"CN",
    "city":"Weihai",
    "city_code":"WEH",
    "group":"ASIA",
    "market":"INT",
    "nearby":[

    ]
  },
  {
    "airport":"Wuhai",
    "airport_code":"WUA",
    "latitude":39.7934,
    "longitude":106.7993,
    "continent":"Asia",
    "country":"China",
    "country_code":"CN",
    "city":"Wuhai",
    "city_code":"WUA",
    "group":"ASIA",
    "market":"INT",
    "nearby":[

    ]
  },
  {
    "airport":"Wanzhou Wuqiao Airport",
    "airport_code":"WXN",
    "latitude":30.8017,
    "longitude":108.433,
    "continent":"Asia",
    "country":"China",
    "country_code":"CN",
    "city":"Wanzhou",
    "city_code":"WXN",
    "group":"ASIA",
    "market":"INT",
    "nearby":[

    ]
  },
  {
    "airport":"Xichang Qingshan Airport",
    "airport_code":"XIC",
    "latitude":27.9890995,
    "longitude":102.1839981,
    "continent":"Asia",
    "country":"China",
    "country_code":"CN",
    "city":"Xichang",
    "city_code":"XIC",
    "group":"ASIA",
    "market":"INT",
    "nearby":[

    ]
  },
  {
    "airport":"Xilinhot",
    "airport_code":"XIL",
    "latitude":43.91559982,
    "longitude":115.9639969,
    "continent":"Asia",
    "country":"China",
    "country_code":"CN",
    "city":"Xilinhot",
    "city_code":"XIL",
    "group":"ASIA",
    "market":"INT",
    "nearby":[

    ]
  },
  {
    "airport":"Yibin Caiba Airport",
    "airport_code":"YBP",
    "latitude":28.80055556,
    "longitude":104.545,
    "continent":"Asia",
    "country":"China",
    "country_code":"CN",
    "city":"Yibin",
    "city_code":"YBP",
    "group":"ASIA",
    "market":"INT",
    "nearby":[

    ]
  },
  {
    "airport":"Yuncheng Guangong",
    "airport_code":"YCU",
    "latitude":35.116391,
    "longitude":111.0313889,
    "continent":"Asia",
    "country":"China",
    "country_code":"CN",
    "city":"Yuncheng",
    "city_code":"YCU",
    "group":"ASIA",
    "market":"INT",
    "nearby":[

    ]
  },
  {
    "airport":"Yichun Mingyueshan",
    "airport_code":"YIC",
    "latitude":27.8025,
    "longitude":114.3062,
    "continent":"Asia",
    "country":"China",
    "country_code":"CN",
    "city":"Yichun (Jiangxi)",
    "city_code":"YIC",
    "group":"ASIA",
    "market":"INT",
    "nearby":[

    ]
  },
  {
    "airport":"Yichang Sanxia Airport",
    "airport_code":"YIH",
    "latitude":30.55655,
    "longitude":111.479988,
    "continent":"Asia",
    "country":"China",
    "country_code":"CN",
    "city":"Yichang",
    "city_code":"YIH",
    "group":"ASIA",
    "market":"INT",
    "nearby":[

    ]
  },
  {
    "airport":"Yining",
    "airport_code":"YIN",
    "latitude":43.955799,
    "longitude":81.330299,
    "continent":"Asia",
    "country":"China",
    "country_code":"CN",
    "city":"Yining",
    "city_code":"YIN",
    "group":"ASIA",
    "market":"INT",
    "nearby":[

    ]
  },
  {
    "airport":"Yiwu",
    "airport_code":"YIW",
    "latitude":29.34469986,
    "longitude":120.0319977,
    "continent":"Asia",
    "country":"China",
    "country_code":"CN",
    "city":"Yiwu",
    "city_code":"YIW",
    "group":"ASIA",
    "market":"INT",
    "nearby":[

    ]
  },
  {
    "airport":"Yancheng",
    "airport_code":"YNZ",
    "latitude":33.425833,
    "longitude":120.203056,
    "continent":"Asia",
    "country":"China",
    "country_code":"CN",
    "city":"Yancheng",
    "city_code":"YNZ",
    "group":"ASIA",
    "market":"INT",
    "nearby":[

    ]
  },
  {
    "airport":"Yangzhou Taizhou Int.",
    "airport_code":"YTY",
    "latitude":32.5634,
    "longitude":119.7198,
    "continent":"Asia",
    "country":"China",
    "country_code":"CN",
    "city":"Yangzhou",
    "city_code":"YTY",
    "group":"ASIA",
    "market":"INT",
    "nearby":[

    ]
  },
  {
    "airport":"Zhaotong",
    "airport_code":"ZAT",
    "latitude":27.32559967,
    "longitude":103.7549973,
    "continent":"Asia",
    "country":"China",
    "country_code":"CN",
    "city":"Zhaotong",
    "city_code":"ZAT",
    "group":"ASIA",
    "market":"INT",
    "nearby":[

    ]
  },
  {
    "airport":"Zhanjiang",
    "airport_code":"ZHA",
    "latitude":21.214399,
    "longitude":110.358002,
    "continent":"Asia",
    "country":"China",
    "country_code":"CN",
    "city":"Zhanjiang",
    "city_code":"ZHA",
    "group":"ASIA",
    "market":"INT",
    "nearby":[

    ]
  },
  {
    "airport":"Zunyi Xinzhou Airport",
    "airport_code":"ZYI",
    "latitude":27.5895,
    "longitude":107.0007,
    "continent":"Asia",
    "country":"China",
    "country_code":"CN",
    "city":"Zunyi",
    "city_code":"ZYI",
    "group":"ASIA",
    "market":"INT",
    "nearby":[

    ]
  },
  {
    "airport":"Hong Kong Int.",
    "airport_code":"HKG",
    "latitude":22.308901,
    "longitude":113.915001,
    "continent":"Asia",
    "country":"China",
    "country_code":"CN",
    "city":"Hong Kong",
    "city_code":"HKG",
    "group":"ASIA",
    "market":"INT",
    "nearby":[

    ]
  },
  {
    "airport":"Macau Int. Airport",
    "airport_code":"MFM",
    "latitude":22.149599,
    "longitude":113.592003,
    "continent":"Asia",
    "country":"China",
    "country_code":"CN",
    "city":"Macao",
    "city_code":"MFM",
    "group":"ASIA",
    "market":"INT",
    "nearby":[

    ]
  },
  {
    "airport":"Taipei Songshan Airport",
    "airport_code":"TSA",
    "latitude":25.06940079,
    "longitude":121.552002,
    "continent":"Asia",
    "country":"China",
    "country_code":"CN",
    "city":"Taipei",
    "city_code":"TPE",
    "group":"ASIA",
    "market":"INT",
    "nearby":[

    ]
  },
  {
    "airport":"Taiwan Taoyuan Int.",
    "airport_code":"TPE",
    "latitude":25.0777,
    "longitude":121.233002,
    "continent":"Asia",
    "country":"China",
    "country_code":"CN",
    "city":"Taipei",
    "city_code":"TPE",
    "group":"ASIA",
    "market":"INT",
    "nearby":[

    ]
  },
  {
    "airport":"Kaohsiung Int. Airport",
    "airport_code":"KHH",
    "latitude":22.57710075,
    "longitude":120.3499985,
    "continent":"Asia",
    "country":"China",
    "country_code":"CN",
    "city":"Kaohsiung",
    "city_code":"KHH",
    "group":"ASIA",
    "market":"INT",
    "nearby":[

    ]
  },
  {
    "airport":"Taichung",
    "airport_code":"RMQ",
    "latitude":24.26469994,
    "longitude":120.6210022,
    "continent":"Asia",
    "country":"China",
    "country_code":"CN",
    "city":"Taichung",
    "city_code":"RMQ",
    "group":"ASIA",
    "market":"INT",
    "nearby":[

    ]
  },
  {
    "airport":"Ernesto Cortissoz",
    "airport_code":"BAQ",
    "latitude":10.8896,
    "longitude":-74.7808,
    "continent":"South America",
    "country":"Colombia",
    "country_code":"CO",
    "city":"Barranquilla",
    "city_code":"BAQ",
    "group":"MEXSA",
    "market":"INT",
    "nearby":[

    ]
  },
  {
    "airport":"El Dorado Int.",
    "airport_code":"BOG",
    "latitude":4.70159,
    "longitude":-74.1469,
    "continent":"South America",
    "country":"Colombia",
    "country_code":"CO",
    "city":"Bogot\u00e1",
    "city_code":"BOG",
    "group":"MEXSA",
    "market":"INT",
    "nearby":[

    ]
  },
  {
    "airport":"Palonegro Int.",
    "airport_code":"BGA",
    "latitude":7.1265,
    "longitude":-73.1848,
    "continent":"South America",
    "country":"Colombia",
    "country_code":"CO",
    "city":"Bucaramanga",
    "city_code":"BGA",
    "group":"MEXSA",
    "market":"INT",
    "nearby":[

    ]
  },
  {
    "airport":"Alfonso B. Arag\u00f3n",
    "airport_code":"CLO",
    "latitude":3.54322,
    "longitude":-76.3816,
    "continent":"South America",
    "country":"Colombia",
    "country_code":"CO",
    "city":"Cali",
    "city_code":"CLO",
    "group":"MEXSA",
    "market":"INT",
    "nearby":[

    ]
  },
  {
    "airport":"Rafael Nu\u00f1ez",
    "airport_code":"CTG",
    "latitude":10.4424,
    "longitude":-75.513,
    "continent":"South America",
    "country":"Colombia",
    "country_code":"CO",
    "city":"Cartagena",
    "city_code":"CTG",
    "group":"MEXSA",
    "market":"INT",
    "nearby":[

    ]
  },
  {
    "airport":"Jos\u00e9 Mar\u00eda C\u00f3rdova Int.",
    "airport_code":"MDE",
    "latitude":6.16454,
    "longitude":-75.4231,
    "continent":"South America",
    "country":"Colombia",
    "country_code":"CO",
    "city":"Medell\u00edn",
    "city_code":"MDE",
    "group":"MEXSA",
    "market":"INT",
    "nearby":[

    ]
  },
  {
    "airport":"Mateca\u00f1a Int.",
    "airport_code":"PEI",
    "latitude":4.81267,
    "longitude":-75.7395,
    "continent":"South America",
    "country":"Colombia",
    "country_code":"CO",
    "city":"Pereira",
    "city_code":"PEI",
    "group":"MEXSA",
    "market":"INT",
    "nearby":[

    ]
  },
  {
    "airport":"Gustavo Rojas Pinilla Int.",
    "airport_code":"ADZ",
    "latitude":12.5836,
    "longitude":-81.7112,
    "continent":"South America",
    "country":"Colombia",
    "country_code":"CO",
    "city":"San Andres Island",
    "city_code":"ADZ",
    "group":"MEXSA",
    "market":"INT",
    "nearby":[

    ]
  },
  {
    "airport":"El Eden Int.",
    "airport_code":"AXM",
    "latitude":4.45278,
    "longitude":-75.7664,
    "continent":"South America",
    "country":"Colombia",
    "country_code":"CO",
    "city":"Armenia",
    "city_code":"AXM",
    "group":"MEXSA",
    "market":"INT",
    "nearby":[

    ]
  },
  {
    "airport":"Camilo Daza Int.",
    "airport_code":"CUC",
    "latitude":7.92757,
    "longitude":-72.5115,
    "continent":"South America",
    "country":"Colombia",
    "country_code":"CO",
    "city":"Cucuta",
    "city_code":"CUC",
    "group":"MEXSA",
    "market":"INT",
    "nearby":[

    ]
  },
  {
    "airport":"Yariguies Airport",
    "airport_code":"EJA",
    "latitude":7.02433,
    "longitude":-73.8068,
    "continent":"South America",
    "country":"Colombia",
    "country_code":"CO",
    "city":"Barrancabermeja",
    "city_code":"EJA",
    "group":"MEXSA",
    "market":"INT",
    "nearby":[

    ]
  },
  {
    "airport":"El Alcarav\u00e1n Airport",
    "airport_code":"EYP",
    "latitude":5.31911,
    "longitude":-72.384,
    "continent":"South America",
    "country":"Colombia",
    "country_code":"CO",
    "city":"Yopal",
    "city_code":"EYP",
    "group":"MEXSA",
    "market":"INT",
    "nearby":[

    ]
  },
  {
    "airport":"Gustavo Artunduaga Paredes Airport",
    "airport_code":"FLA",
    "latitude":1.58919,
    "longitude":-75.5644,
    "continent":"South America",
    "country":"Colombia",
    "country_code":"CO",
    "city":"Florencia",
    "city_code":"FLA",
    "group":"MEXSA",
    "market":"INT",
    "nearby":[

    ]
  },
  {
    "airport":"Perales Airport",
    "airport_code":"IBE",
    "latitude":4.42161,
    "longitude":-75.1333,
    "continent":"South America",
    "country":"Colombia",
    "country_code":"CO",
    "city":"Ibague",
    "city_code":"IBE",
    "group":"MEXSA",
    "market":"INT",
    "nearby":[

    ]
  },
  {
    "airport":"Alfredo V\u00e1squez Cobo Int. Airport",
    "airport_code":"LET",
    "latitude":-4.19355,
    "longitude":-69.9432,
    "continent":"South America",
    "country":"Colombia",
    "country_code":"CO",
    "city":"Leticia",
    "city_code":"LET",
    "group":"MEXSA",
    "market":"INT",
    "nearby":[

    ]
  },
  {
    "airport":"Los Garzones",
    "airport_code":"MTR",
    "latitude":8.82374,
    "longitude":-75.8258,
    "continent":"South America",
    "country":"Colombia",
    "country_code":"CO",
    "city":"Monteria",
    "city_code":"MTR",
    "group":"MEXSA",
    "market":"INT",
    "nearby":[

    ]
  },
  {
    "airport":"La Nubia",
    "airport_code":"MZL",
    "latitude":5.0296,
    "longitude":-75.4647,
    "continent":"South America",
    "country":"Colombia",
    "country_code":"CO",
    "city":"Manizales",
    "city_code":"MZL",
    "group":"MEXSA",
    "market":"INT",
    "nearby":[

    ]
  },
  {
    "airport":"Benito Salas",
    "airport_code":"NVA",
    "latitude":2.95015,
    "longitude":-75.294,
    "continent":"South America",
    "country":"Colombia",
    "country_code":"CO",
    "city":"Neiva",
    "city_code":"NVA",
    "group":"MEXSA",
    "market":"INT",
    "nearby":[

    ]
  },
  {
    "airport":"Guillermo Le\u00f3n Valencia Airport",
    "airport_code":"PPN",
    "latitude":2.4544,
    "longitude":-76.6093,
    "continent":"South America",
    "country":"Colombia",
    "country_code":"CO",
    "city":"Popayan",
    "city_code":"PPN",
    "group":"MEXSA",
    "market":"INT",
    "nearby":[

    ]
  },
  {
    "airport":"Antonio Nari\u00f1o",
    "airport_code":"PSO",
    "latitude":1.39625,
    "longitude":-77.2915,
    "continent":"South America",
    "country":"Colombia",
    "country_code":"CO",
    "city":"Sam Juan de Pasto",
    "city_code":"PSO",
    "group":"MEXSA",
    "market":"INT",
    "nearby":[

    ]
  },
  {
    "airport":"Almirante Padilla Airport",
    "airport_code":"RCH",
    "latitude":11.5262,
    "longitude":-72.926,
    "continent":"South America",
    "country":"Colombia",
    "country_code":"CO",
    "city":"Riohacha",
    "city_code":"RCH",
    "group":"MEXSA",
    "market":"INT",
    "nearby":[

    ]
  },
  {
    "airport":"Sim\u00f3n Bol\u00edvar Int.",
    "airport_code":"SMR",
    "latitude":11.1196,
    "longitude":-74.2306,
    "continent":"South America",
    "country":"Colombia",
    "country_code":"CO",
    "city":"Santa Marta",
    "city_code":"SMR",
    "group":"MEXSA",
    "market":"INT",
    "nearby":[

    ]
  },
  {
    "airport":"La Florida Airport",
    "airport_code":"TCO",
    "latitude":1.81442,
    "longitude":-78.7492,
    "continent":"South America",
    "country":"Colombia",
    "country_code":"CO",
    "city":"Tumaco",
    "city_code":"TCO",
    "group":"MEXSA",
    "market":"INT",
    "nearby":[

    ]
  },
  {
    "airport":"Alfonso L\u00f3pez Pumarejo Airport",
    "airport_code":"VUP",
    "latitude":10.435,
    "longitude":-73.2495,
    "continent":"South America",
    "country":"Colombia",
    "country_code":"CO",
    "city":"Valledupar",
    "city_code":"VUP",
    "group":"MEXSA",
    "market":"INT",
    "nearby":[

    ]
  },
  {
    "airport":"La Vanguardia Airport",
    "airport_code":"VVC",
    "latitude":4.16787,
    "longitude":-73.6138,
    "continent":"South America",
    "country":"Colombia",
    "country_code":"CO",
    "city":"Villavicencio",
    "city_code":"VVC",
    "group":"MEXSA",
    "market":"INT",
    "nearby":[

    ]
  },
  {
    "airport":"Cayo Coco",
    "airport_code":"CCC",
    "latitude":22.46100044,
    "longitude":-78.32839966,
    "continent":"North America",
    "country":"Cuba",
    "country_code":"CU",
    "city":"Cayo Coco",
    "city_code":"CCC",
    "group":"MEXSA",
    "market":"SUN",
    "nearby":[
      "SNU"
    ]
  },
  {
    "airport":"Cayo Largo Del Sur",
    "airport_code":"CYO",
    "latitude":21.61650085,
    "longitude":-81.54599762,
    "continent":"North America",
    "country":"Cuba",
    "country_code":"CU",
    "city":"Cayo Largo Del Sur",
    "city_code":"CYO",
    "group":"MEXSA",
    "market":"SUN",
    "nearby":[

    ]
  },
  {
    "airport":"Jos\u00e9 Mart\u00ed Int.",
    "airport_code":"HAV",
    "latitude":22.98920059,
    "longitude":-82.40910339,
    "continent":"North America",
    "country":"Cuba",
    "country_code":"CU",
    "city":"Havana",
    "city_code":"HAV",
    "group":"MEXSA",
    "market":"SUN",
    "nearby":[
      "VRA",
      "SNU"
    ]
  },
  {
    "airport":"Frank Pais",
    "airport_code":"HOG",
    "latitude":20.78560066,
    "longitude":-76.31510162,
    "continent":"North America",
    "country":"Cuba",
    "country_code":"CU",
    "city":"Holgu\u00edn",
    "city_code":"HOG",
    "group":"MEXSA",
    "market":"SUN",
    "nearby":[

    ]
  },
  {
    "airport":"Santa Clara",
    "airport_code":"SNU",
    "latitude":22.49220085,
    "longitude":-79.94360352,
    "continent":"North America",
    "country":"Cuba",
    "country_code":"CU",
    "city":"Santa Clara",
    "city_code":"SNU",
    "group":"MEXSA",
    "market":"SUN",
    "nearby":[
      "VRA",
      "HAV",
      "CCC"
    ]
  },
  {
    "airport":"Juan Gualberto G\u00f3mez",
    "airport_code":"VRA",
    "latitude":23.03440094,
    "longitude":-81.43530273,
    "continent":"North America",
    "country":"Cuba",
    "country_code":"CU",
    "city":"Varadero",
    "city_code":"VRA",
    "group":"MEXSA",
    "market":"SUN",
    "nearby":[
      "HAV",
      "SNU"
    ]
  },
  {
    "airport":"Hato Int.",
    "airport_code":"CUR",
    "latitude":12.1889,
    "longitude":-68.959801,
    "continent":"North America",
    "country":"Cura\u00e7ao",
    "country_code":"CW",
    "city":"Cura\u00e7ao",
    "city_code":"CUR",
    "group":null,
    "market":"SUN",
    "nearby":[

    ]
  },
  {
    "airport":"Christmas Island Airport",
    "airport_code":"XCH",
    "latitude":-10.45059967,
    "longitude":105.6900024,
    "continent":"South America",
    "country":"Australian territory",
    "country_code":"CX",
    "city":"Christmas Island",
    "city_code":"XCH",
    "group":null,
    "market":"INT",
    "nearby":[

    ]
  },
  {
    "airport":"Larnaca",
    "airport_code":"LCA",
    "latitude":34.87509918,
    "longitude":33.62490082,
    "continent":"Europe",
    "country":"Cyprus",
    "country_code":"CY",
    "city":"Larnaca",
    "city_code":"LCA",
    "group":null,
    "market":"INT",
    "nearby":[

    ]
  },
  {
    "airport":"Ercan",
    "airport_code":"ECN",
    "latitude":35.15470123,
    "longitude":33.49610138,
    "continent":"Europe",
    "country":"Cyprus",
    "country_code":"CY",
    "city":"Ercan",
    "city_code":"ECN",
    "group":null,
    "market":"INT",
    "nearby":[

    ]
  },
  {
    "airport":"Karlovy Vary Airport",
    "airport_code":"KLV",
    "latitude":50.20299911,
    "longitude":12.91499996,
    "continent":"Europe",
    "country":"Czech Republic",
    "country_code":"CZ",
    "city":"Karlovy Vary",
    "city_code":"KLV",
    "group":"EUROPE",
    "market":"INT",
    "nearby":[

    ]
  },
  {
    "airport":"V\u00e1clav Havel",
    "airport_code":"PRG",
    "latitude":50.1008,
    "longitude":14.26,
    "continent":"Europe",
    "country":"Czech Republic",
    "country_code":"CZ",
    "city":"Prague",
    "city_code":"PRG",
    "group":"EUROPE",
    "market":"INT",
    "nearby":[

    ]
  },
  {
    "airport":"Brno Airport",
    "airport_code":"BRQ",
    "latitude":49.15129852,
    "longitude":16.69440079,
    "continent":"Europe",
    "country":"Czech Republic",
    "country_code":"CZ",
    "city":"Brno",
    "city_code":"BRQ",
    "group":"EUROPE",
    "market":"INT",
    "nearby":[

    ]
  },
  {
    "airport":"Aachen Hbf Railway Station",
    "airport_code":"XHJ",
    "latitude":0,
    "longitude":0,
    "continent":"Europe",
    "country":"Germany",
    "country_code":"DE",
    "city":"Aachen",
    "city_code":"AAH",
    "group":"EUROPE",
    "market":"INT",
    "nearby":[

    ]
  },
  {
    "airport":"Berlin Brandenburg Airport",
    "airport_code":"BER",
    "latitude":52.3733,
    "longitude":13.5064,
    "continent":"Europe",
    "country":"Germany",
    "country_code":"DE",
    "city":"Berlin",
    "city_code":"BER",
    "group":"EUROPE",
    "market":"INT",
    "nearby":[

    ]
  },
  {
    "airport":"Bremen",
    "airport_code":"BRE",
    "latitude":53.04750061,
    "longitude":8.786669731,
    "continent":"Europe",
    "country":"Germany",
    "country_code":"DE",
    "city":"Bremen",
    "city_code":"BRE",
    "group":"EUROPE",
    "market":"INT",
    "nearby":[

    ]
  },
  {
    "airport":"Cologne Bonn",
    "airport_code":"CGN",
    "latitude":50.86589813,
    "longitude":7.142739773,
    "continent":"Europe",
    "country":"Germany",
    "country_code":"DE",
    "city":"Cologne",
    "city_code":"CGN",
    "group":"EUROPE",
    "market":"INT",
    "nearby":[

    ]
  },
  {
    "airport":"Cologne Hbf Railway Station",
    "airport_code":"QKL",
    "latitude":0,
    "longitude":0,
    "continent":"Europe",
    "country":"Germany",
    "country_code":"DE",
    "city":"Cologne",
    "city_code":"CGN",
    "group":"EUROPE",
    "market":"INT",
    "nearby":[

    ]
  },
  {
    "airport":"Dortmund",
    "airport_code":"DTM",
    "latitude":51.5182991,
    "longitude":7.612239838,
    "continent":"Europe",
    "country":"Germany",
    "country_code":"DE",
    "city":"Dortmund",
    "city_code":"DTM",
    "group":"EUROPE",
    "market":"INT",
    "nearby":[

    ]
  },
  {
    "airport":"Dortmund Hbf Railway Station",
    "airport_code":"DTZ",
    "latitude":0,
    "longitude":0,
    "continent":"Europe",
    "country":"Germany",
    "country_code":"DE",
    "city":"Dortmund",
    "city_code":"DTM",
    "group":"EUROPE",
    "market":"INT",
    "nearby":[

    ]
  },
  {
    "airport":"Dresden",
    "airport_code":"DRS",
    "latitude":51.13280106,
    "longitude":13.76720047,
    "continent":"Europe",
    "country":"Germany",
    "country_code":"DE",
    "city":"Dresden",
    "city_code":"DRS",
    "group":"EUROPE",
    "market":"INT",
    "nearby":[

    ]
  },
  {
    "airport":"D\u00fcsseldorf",
    "airport_code":"DUS",
    "latitude":51.289501,
    "longitude":6.76678,
    "continent":"Europe",
    "country":"Germany",
    "country_code":"DE",
    "city":"D\u00fcsseldorf",
    "city_code":"DUS",
    "group":"EUROPE",
    "market":"INT",
    "nearby":[

    ]
  },
  {
    "airport":"Dusseldorf Train Station",
    "airport_code":"QDU",
    "latitude":0,
    "longitude":0,
    "continent":"Europe",
    "country":"Germany",
    "country_code":"DE",
    "city":"D\u00fcsseldorf",
    "city_code":"DUS",
    "group":"EUROPE",
    "market":"INT",
    "nearby":[

    ]
  },
  {
    "airport":"Frankfurt Int.",
    "airport_code":"FRA",
    "latitude":50.033333,
    "longitude":8.570556,
    "continent":"Europe",
    "country":"Germany",
    "country_code":"DE",
    "city":"Frankfurt",
    "city_code":"FRA",
    "group":"EUROPE",
    "market":"INT",
    "nearby":[

    ]
  },
  {
    "airport":"Friedrichshafen",
    "airport_code":"FDH",
    "latitude":47.67129898,
    "longitude":9.511489868,
    "continent":"Europe",
    "country":"Germany",
    "country_code":"DE",
    "city":"Friedrichshafen",
    "city_code":"FDH",
    "group":"EUROPE",
    "market":"INT",
    "nearby":[

    ]
  },
  {
    "airport":"Hamburg",
    "airport_code":"HAM",
    "latitude":53.63040161,
    "longitude":9.988229752,
    "continent":"Europe",
    "country":"Germany",
    "country_code":"DE",
    "city":"Hamburg",
    "city_code":"HAM",
    "group":"EUROPE",
    "market":"INT",
    "nearby":[

    ]
  },
  {
    "airport":"Hannover",
    "airport_code":"HAJ",
    "latitude":52.46110153,
    "longitude":9.685079575,
    "continent":"Europe",
    "country":"Germany",
    "country_code":"DE",
    "city":"Hanover",
    "city_code":"HAJ",
    "group":"EUROPE",
    "market":"INT",
    "nearby":[

    ]
  },
  {
    "airport":"Hannover Hbf Railway Station",
    "airport_code":"ZVR",
    "latitude":0,
    "longitude":0,
    "continent":"Europe",
    "country":"Germany",
    "country_code":"DE",
    "city":"Hanover",
    "city_code":"HAJ",
    "group":"EUROPE",
    "market":"INT",
    "nearby":[

    ]
  },
  {
    "airport":"Leipzig\\/Halle",
    "airport_code":"LEJ",
    "latitude":51.423889,
    "longitude":12.236389,
    "continent":"Europe",
    "country":"Germany",
    "country_code":"DE",
    "city":"Leipzig",
    "city_code":"LEJ",
    "group":"EUROPE",
    "market":"INT",
    "nearby":[

    ]
  },
  {
    "airport":"Leipzig Hbf Railway Station",
    "airport_code":"XIT",
    "latitude":0,
    "longitude":0,
    "continent":"Europe",
    "country":"Germany",
    "country_code":"DE",
    "city":"Leipzig",
    "city_code":"LEJ",
    "group":"EUROPE",
    "market":"INT",
    "nearby":[

    ]
  },
  {
    "airport":"M\u00fcnster Osnabr\u00fcck",
    "airport_code":"FMO",
    "latitude":52.13460159,
    "longitude":7.684830189,
    "continent":"Europe",
    "country":"Germany",
    "country_code":"DE",
    "city":"Muenster",
    "city_code":"FMO",
    "group":"EUROPE",
    "market":"INT",
    "nearby":[

    ]
  },
  {
    "airport":"Franz Josef Strauss",
    "airport_code":"MUC",
    "latitude":48.353802,
    "longitude":11.7861,
    "continent":"Europe",
    "country":"Germany",
    "country_code":"DE",
    "city":"Munich",
    "city_code":"MUC",
    "group":"EUROPE",
    "market":"INT",
    "nearby":[

    ]
  },
  {
    "airport":"Nuremberg",
    "airport_code":"NUE",
    "latitude":49.498699,
    "longitude":11.078056,
    "continent":"Europe",
    "country":"Germany",
    "country_code":"DE",
    "city":"Nuremberg",
    "city_code":"NUE",
    "group":"EUROPE",
    "market":"INT",
    "nearby":[

    ]
  },
  {
    "airport":"Nuremberg Railway Station",
    "airport_code":"ZAQ",
    "latitude":0,
    "longitude":0,
    "continent":"Europe",
    "country":"Germany",
    "country_code":"DE",
    "city":"Nuremberg",
    "city_code":"NUE",
    "group":"EUROPE",
    "market":"INT",
    "nearby":[

    ]
  },
  {
    "airport":"Rostock Airport",
    "airport_code":"RLG",
    "latitude":53.91820145,
    "longitude":12.27830029,
    "continent":"Europe",
    "country":"Germany",
    "country_code":"DE",
    "city":"Rostock",
    "city_code":"RLG",
    "group":"EUROPE",
    "market":"INT",
    "nearby":[

    ]
  },
  {
    "airport":"Stuttgart",
    "airport_code":"STR",
    "latitude":48.68989944,
    "longitude":9.221960068,
    "continent":"Europe",
    "country":"Germany",
    "country_code":"DE",
    "city":"Stuttgart",
    "city_code":"STR",
    "group":"EUROPE",
    "market":"INT",
    "nearby":[

    ]
  },
  {
    "airport":"Stuttgart Hbf Railway Station",
    "airport_code":"ZWS",
    "latitude":0,
    "longitude":0,
    "continent":"Europe",
    "country":"Germany",
    "country_code":"DE",
    "city":"Stuttgart",
    "city_code":"STR",
    "group":"EUROPE",
    "market":"INT",
    "nearby":[

    ]
  },
  {
    "airport":"Baden Airpark Airport",
    "airport_code":"FKB",
    "latitude":48.77939987,
    "longitude":8.080499649,
    "continent":"Europe",
    "country":"Germany",
    "country_code":"DE",
    "city":"Karlsruhe\\/Baden Baden",
    "city_code":"FKB",
    "group":"EUROPE",
    "market":"INT",
    "nearby":[

    ]
  },
  {
    "airport":"Karlsruhe Hbf Railway Station",
    "airport_code":"KJR",
    "latitude":0,
    "longitude":0,
    "continent":"Europe",
    "country":"Germany",
    "country_code":"DE",
    "city":"Karlsruhe\\/Baden Baden",
    "city_code":"FKB",
    "group":"EUROPE",
    "market":"INT",
    "nearby":[

    ]
  },
  {
    "airport":"Sylt Airport",
    "airport_code":"GWT",
    "latitude":54.91320038,
    "longitude":8.340470314,
    "continent":"Europe",
    "country":"Germany",
    "country_code":"DE",
    "city":"Westerland",
    "city_code":"GWT",
    "group":"EUROPE",
    "market":"INT",
    "nearby":[

    ]
  },
  {
    "airport":"Heringsdorf",
    "airport_code":"HDF",
    "latitude":53.87870026,
    "longitude":14.15229988,
    "continent":"Europe",
    "country":"Germany",
    "country_code":"DE",
    "city":"Heringsdorf",
    "city_code":"HDF",
    "group":"EUROPE",
    "market":"INT",
    "nearby":[

    ]
  },
  {
    "airport":"Kassel",
    "airport_code":"KSF",
    "latitude":51.417273,
    "longitude":9.384967,
    "continent":"Europe",
    "country":"Germany",
    "country_code":"DE",
    "city":"Kassel",
    "city_code":"KSF",
    "group":"EUROPE",
    "market":"INT",
    "nearby":[

    ]
  },
  {
    "airport":"Kassel Wilhemshoehe Railway Station",
    "airport_code":"KWQ",
    "latitude":0,
    "longitude":0,
    "continent":"Europe",
    "country":"Germany",
    "country_code":"DE",
    "city":"Kassel",
    "city_code":"KSF",
    "group":"EUROPE",
    "market":"INT",
    "nearby":[

    ]
  },
  {
    "airport":"Mannheim Hbf Railway Station",
    "airport_code":"MHJ",
    "latitude":0,
    "longitude":0,
    "continent":"Europe",
    "country":"Germany",
    "country_code":"DE",
    "city":"Mannheim",
    "city_code":"MHG",
    "group":"EUROPE",
    "market":"INT",
    "nearby":[

    ]
  },
  {
    "airport":"Freiburg Hbf Railway Station",
    "airport_code":"QFB",
    "latitude":0,
    "longitude":0,
    "continent":"Europe",
    "country":"Germany",
    "country_code":"DE",
    "city":"Freiburg",
    "city_code":"QFB",
    "group":"EUROPE",
    "market":"INT",
    "nearby":[

    ]
  },
  {
    "airport":"Ulm Train Station",
    "airport_code":"QUL",
    "latitude":0,
    "longitude":0,
    "continent":"Europe",
    "country":"Germany",
    "country_code":"DE",
    "city":"Ulm",
    "city_code":"QUL",
    "group":"EUROPE",
    "market":"INT",
    "nearby":[

    ]
  },
  {
    "airport":"Wurzburg Hbf Railway Station",
    "airport_code":"QWU",
    "latitude":0,
    "longitude":0,
    "continent":"Europe",
    "country":"Germany",
    "country_code":"DE",
    "city":"Wurzburg",
    "city_code":"QWU",
    "group":"EUROPE",
    "market":"INT",
    "nearby":[

    ]
  },
  {
    "airport":"Paderborn Lippstadt",
    "airport_code":"PAD",
    "latitude":51.61410141,
    "longitude":8.616319656,
    "continent":"Europe",
    "country":"Germany",
    "country_code":"DE",
    "city":"Paderborn",
    "city_code":"PAD",
    "group":"EUROPE",
    "market":"INT",
    "nearby":[

    ]
  },
  {
    "airport":"Erfurt Railway Station",
    "airport_code":"XIU",
    "latitude":0,
    "longitude":0,
    "continent":"Europe",
    "country":"Germany",
    "country_code":"DE",
    "city":"Erfurt",
    "city_code":"ERF",
    "group":"EUROPE",
    "market":"INT",
    "nearby":[

    ]
  },
  {
    "airport":"Goettingen Hbf Railway Station",
    "airport_code":"ZEU",
    "latitude":0,
    "longitude":0,
    "continent":"Europe",
    "country":"Germany",
    "country_code":"DE",
    "city":"Goettingen",
    "city_code":"ZEU",
    "group":"EUROPE",
    "market":"INT",
    "nearby":[

    ]
  },
  {
    "airport":"Aalborg",
    "airport_code":"AAL",
    "latitude":57.09275891,
    "longitude":9.849243164,
    "continent":"Europe",
    "country":"Denmark",
    "country_code":"DK",
    "city":"Aalborg",
    "city_code":"AAL",
    "group":null,
    "market":"INT",
    "nearby":[

    ]
  },
  {
    "airport":"Aarhus",
    "airport_code":"AAR",
    "latitude":56.29999924,
    "longitude":10.61900043,
    "continent":"Europe",
    "country":"Denmark",
    "country_code":"DK",
    "city":"Aarhus",
    "city_code":"AAR",
    "group":null,
    "market":"INT",
    "nearby":[

    ]
  },
  {
    "airport":"Billund",
    "airport_code":"BLL",
    "latitude":55.74029922,
    "longitude":9.151780128,
    "continent":"Europe",
    "country":"Denmark",
    "country_code":"DK",
    "city":"Billund",
    "city_code":"BLL",
    "group":null,
    "market":"INT",
    "nearby":[

    ]
  },
  {
    "airport":"Copenhagen",
    "airport_code":"CPH",
    "latitude":55.61790085,
    "longitude":12.65600014,
    "continent":"Europe",
    "country":"Denmark",
    "country_code":"DK",
    "city":"Copenhagen",
    "city_code":"CPH",
    "group":null,
    "market":"INT",
    "nearby":[

    ]
  },
  {
    "airport":"Esbjerg Airport",
    "airport_code":"EBJ",
    "latitude":55.525902,
    "longitude":8.5534,
    "continent":"Europe",
    "country":"Denmark",
    "country_code":"DK",
    "city":"Esbjerg",
    "city_code":"EBJ",
    "group":null,
    "market":"INT",
    "nearby":[

    ]
  },
  {
    "airport":"Faroe Islands",
    "airport_code":"FAE",
    "latitude":62.06359863,
    "longitude":-7.277219772,
    "continent":"Europe",
    "country":"Denmark",
    "country_code":"DK",
    "city":"Faroe Islands",
    "city_code":"FAE",
    "group":null,
    "market":"INT",
    "nearby":[

    ]
  },
  {
    "airport":"Douglas\u2013Charles Airport",
    "airport_code":"DOM",
    "latitude":15.547,
    "longitude":-61.299999,
    "continent":"North America",
    "country":"Dominica",
    "country_code":"DM",
    "city":"Melville Hall",
    "city_code":"DOM",
    "group":null,
    "market":"INT",
    "nearby":[

    ]
  },
  {
    "airport":"La Romana",
    "airport_code":"LRM",
    "latitude":18.45070076,
    "longitude":-68.91179657,
    "continent":"North America",
    "country":"Dominican Republic",
    "country_code":"DO",
    "city":"La Romana",
    "city_code":"LRM",
    "group":"MEXSA",
    "market":"SUN",
    "nearby":[

    ]
  },